"AROKATO";"nom";"idreg";"pays";"lat";"long";"Est-ouest";"Capitale";"hydrocarbures";"date creation";"typharris1963";"NMonopoleSnyder";"COAL-AREA";"COAL-ID";"COAL-NAME";"Coal01";"IDRAIL";"DIST-RAIL";"1959y";"1970y";"1979y";"1989y";"2002y";"2010y"
"AR78410";"rostov";"RUS79";"Russie";57.18333333;39.41666667;"O";0;0;852;;;0;0;0;0;3445;2853.826748;29.2;30.8;31.5;35.7;34.141;31.791
"AR49401";"Veliki Novgorod";"RUS43";"Russie";58.51666667;31.28333333;"O";1;0;859;"1B3";;0;0;0;0;2484;1430.783768;62.909;132.279;196.3;243.015;233.32;228.336
"AR66401";"Smolensk";"RUS61";"Russie";54.78333333;32.05;"O";1;0;862;"1B3";;0;0;0;0;5161;2702.023351;160.023;230.62;299.247;341.5;325.137;326.863
"AR58401";"Pskov";"RUS54";"Russie";57.81666667;28.33333333;"O";1;0;903;"1B3";;0;0;0;0;2897;2297.447639;81.3;126.7;175.7;203.8;202.78;203.281
"AR78420";"uglich";"RUS79";"Russie";57.53333333;38.33333333;"O";0;0;937;;;0;0;0;0;3206;370.1809402;28.9;35.5;39.1;40;38.26;34.505
"AR15256501";"trubchevsk";"RUS11";"Russie";52.58333333;33.76666667;"O";0;0;975;;;0;0;0;0;7948;592.7277671;11.842;12.1;14.4;16.3;16.342;15.014
"AR15401";"Briansk";"RUS11";"Russie";53.25;34.36666667;"O";1;0;985;"1B2";;0;0;0;0;6945;3557.934506;218.3;330.6;408.2;467.4;447.03;429.514
"AR17445";"suzdalj";"RUS75";"Russie";56.43333333;40.43333333;"O";0;0;1024;;;0;0;0;0;4039;21982.8832;;10.2;11.5;12.1;11.357;10.535
"AR78401";"Iaroslavl";"RUS79";"Russie";57.63333333;39.86666667;"O";1;0;1071;"1B2";;0;0;0;0;3022;1554.07511;407.1;517.3;597;633;613.088;591.486
"AR28255501";"toropec";"RUS74";"Russie";56.5;31.63333333;"O";0;0;1074;;;0;0;0;0;3967;163.1389836;15.2;16.9;17.3;17.5;14.6;13.018
"AR38401";"Koursk";"RUS32";"Russie";51.71666667;36.18333333;"O";1;0;1095;"1B2";;0;0;0;0;9110;1827.389504;204.7;284.2;375.3;424.2;412.442;414.595
"AR17401";"Vladimir";"RUS75";"Russie";56.13333333;40.41666667;"O";1;0;1108;"1B3";;0;0;0;0;4154;562.5035692;153.9;237.937;304.85;366.343;327.572;345.598
"AR46205501";"volokolamsk";"RUS40";"Russie";56.03333333;35.95;"O";0;0;1135;;;0;0;0;0;4320;5074.261954;;20.901;24.005;24.001;20.303;23.386
"AR28450";"torzhok";"RUS74";"Russie";57.03333333;34.96666667;"O";0;0;1139;;;0;0;0;0;3354;3070.419107;34.9;45.4;47.2;50;48.967;47.702
"AR45";"Moscou";"RUS14";"Russie";55.75;37.61666667;"O";1;0;1145;"1A1";;0;0;0;0;4468;1534.097797;7186.148;9061.219;10480.741;11625.098;13028.998;14425.208
"AR15224501";"karachev";"RUS11";"Russie";53.11666667;34.98333333;"O";0;0;1146;;;0;0;0;0;7309;743.7176567;11.2;16;19.7;22.4;20.175;19.715
"AR54410";"mcensk";"RUS46";"Russie";53.28333333;36.56666667;"O";0;0;1146;;;0;0;0;0;7256;572.7316177;14.3;27.8;41.8;48.4;47.807;43.216
"AR42415";"elec";"RUS36";"Russie";52.61666667;38.51666667;"O";0;0;1146;"3A2";;0;0;0;0;7647;190.7109562;77.9;100.7;111.7;120.3;116.726;108.404
"AR11218501";"kargopol";"RUS05";"Russie";61.5;38.93333333;"O";0;0;1146;;;0;0;0;0;1005;40651.74323;;11.4;10.7;12.5;11.192;10.148
"AR29216501";"kozeljsk";"RUS22";"Russie";54.03333333;35.78333333;"O";0;0;1146;;;108000000000;122;"Podmoscovny basin";1;5867;528.7238594;12.1;13;19.8;19.7;19.907;18.203
"AR70401";"Toula";"RUS72";"Russie";54.2;37.61666667;"O";1;0;1146;"1B2";;108000000000;122;"Podmoscovny basin";1;5633;2214.674736;479.935;652.797;713.263;735.35;658.671;620.83
"AR19401";"Vologda";"RUS77";"Russie";59.21666667;39.9;"O";1;0;1147;"1B3";;0;0;0;0;2087;346.7153068;139.1;177.8;236.5;282.8;293.046;301.642
"AR66214501";"dorogobuzh";"RUS61";"Russie";54.91666667;33.3;"O";0;0;1150;;;108000000000;122;"Podmoscovny basin";1;5062;1196.65351;;;;12.3;12.25;10.72
"AR78405";"peslavzales";"RUS79";"Russie";56.73333333;38.85;"O";0;0;1152;;;0;0;0;0;3704;1302.098368;23.1;30.1;37.5;42.3;43.379;41.923
"AR61405";"kasimov";"RUS56";"Russie";54.93333333;41.4;"O";0;0;1152;;;0;0;0;0;5109;364.9510482;27.9;33.1;34.2;37.5;35.816;33.494
"AR28401";"Tver";"RUS74";"Russie";56.86666667;35.9;"O";1;0;1164;"1B2";;0;0;0;0;3513;1248.092561;261;345.1;411.5;450.9;408.903;403.726
"AR58410";"velikie luki";"RUS54";"Russie";56.33333333;30.51666667;"O";0;0;1166;"2A";;0;0;0;0;3984;61.40216021;58.9;85.3;101.5;113.7;104.979;98.778
"AR49413";"starajarusa";"RUS43";"Russie";57.98333333;31.35;"O";0;0;1167;;;0;0;0;0;2876;503.9652921;25.4;34.6;40.4;41.5;35.511;31.809
"AR19410";"velustug";"RUS77";"Russie";60.76666667;46.3;"O";0;0;1212;;;0;0;0;0;1108;513.947627;37;36.7;37.9;36.2;33.419;31.664
"AR34401";"Kostroma";"RUS30";"Russie";57.76666667;40.93333333;"O";1;0;1213;"1B3";;0;0;0;0;2933;227.306337;171.7;223;254.7;278.4;278.75;268.617
"AR22401";"Nijni-Novgorod";"RUS42";"Russie";56.31666667;44;"O";1;0;1221;"1B1";;0;0;0;0;4084;1672.339038;1256.441;1594.859;1825.479;1954.795;1795.488;1723.12
"AR24237501";"jurjevec";"RUS18";"Russie";57.31666667;43.1;"O";0;0;1225;;;0;0;0;0;2999;49458.87709;19.7;20.1;18.3;16.5;12.664;10.205
"AR46233501";"mozhajsk";"RUS40";"Russie";55.5;36.03333333;"O";0;0;1231;;;0;0;0;0;4655;130.8624849;15.7;20.3;27.1;30.7;31.459;31.388
"AR28420";"kashin";"RUS74";"Russie";57.35;37.61666667;"O";0;0;1238;;;0;0;0;0;3204;2832.128759;16.2;17.7;19.8;21.2;17.299;16.174
"AR34408";"galich";"RUS30";"Russie";58.38333333;42.35;"O";0;0;1238;;;0;0;0;0;2567;2685.73533;16.1;19.4;21.3;21.7;19.151;17.346
"AR58247501";"porhov";"RUS54";"Russie";57.76666667;29.55;"O";0;0;1239;;;0;0;0;0;2914;449.1717178;;11;13.4;14.2;12.263;10.608
"AR66205501";"vjazma";"RUS61";"Russie";55.2;34.3;"O";0;0;1239;;;108000000000;122;"Podmoscovny basin";1;4842;458.4065578;31.9;44.1;51.7;59;57.545;57.103
"AR61401";"Riazan";"RUS56";"Russie";54.61666667;39.71666667;"O";1;0;1301;"1B2";;0;0;0;0;5322;524.8063237;224.3;367.5;471.1;533.3;540.71;543.44
"AR46470";"serpuhov";"RUS40";"Russie";54.91666667;37.4;"O";0;0;1328;"3A1";;108000000000;122;"Podmoscovny basin";1;5115;381.6121692;106.4;124.3;139.7;143.6;131.097;126.496
"AR46430";"zvenigorod";"RUS40";"Russie";55.73333333;36.85;"O";0;0;1336;;;0;0;0;0;4563;1466.006422;;10.6;12.3;15.8;12.155;16.395
"AR70202501";"aleksin";"RUS72";"Russie";54.5;37.06666667;"O";0;0;1348;;;108000000000;122;"Podmoscovny basin";1;5423;861.6726515;46.3;61.4;67.2;74.3;68.156;61.738
"AR29206501";"borovsk";"RUS22";"Russie";55.2;36.48333333;"O";0;0;1356;;;0;0;0;0;4942;10401.58676;10.9;12.3;13.6;13.4;11.917;12.283
"AR29401";"Kalouga";"RUS22";"Russie";54.51666667;36.26666667;"O";1;0;1371;"1B3";;108000000000;122;"Podmoscovny basin";1;5399;672.087227;134.2;210.9;265;311.4;334.751;325.185
"AR70212501";"venjov";"RUS72";"Russie";54.35;38.26666667;"O";0;0;1371;;;108000000000;122;"Podmoscovny basin";1;5489;102.1836821;;;;13.2;16.167;15.22
"AR33401";"Kirov";"RUS28";"Russie";58.6;49.65;"O";1;0;1374;"1B2";;0;0;0;0;2434;1585.032776;278.379;370.073;436.972;499.53;480.411;473.668
"AR46249501";"ruza";"RUS40";"Russie";55.7;36.2;"O";0;0;1433;;;0;0;0;0;4655;20403.91926;;;10.9;14.6;13.516;13.495
"AR92401";"Kazan";"RUS65";"Russie";55.78333333;49.11666667;"O";1;0;1437;"1B1";;76767000000;63;"Kamskaya  coal-bearing territory";1;4425;364.4546767;775.603;1006.832;1148.838;1268.176;1281.241;1313.825
"AR33410";"kotelnich";"RUS28";"Russie";58.3;48.33333333;"O";0;0;1489;;;0;0;0;0;2595;1033.162263;27.7;29.2;32.8;36.8;28.245;24.979
"AR41417";"vyborg";"RUS35";"Russie";60.71666667;28.75;"O";0;0;1493;"3A2";;0;0;0;0;1134;570.5887522;51.1;65.2;75.6;80.9;79.224;80.013
"AR15244501";"pochep";"RUS11";"Russie";52.93333333;33.45;"O";0;0;1503;;;0;0;0;0;7383;743.1463406;15.7;16;15.9;16.9;17.064;17.161
"AR46216501";"zarajsk";"RUS40";"Russie";54.76666667;38.88333333;"O";0;0;1528;;;108000000000;122;"Podmoscovny basin";1;5191;468.6798624;20.8;23.7;26.7;27;25.093;24.648
"AR12401";"Astrakhan";"RUS06";"Russie";46.35;48.03333333;"O";1;1;1558;"1B2";;0;0;0;0;16546;2026.51546;295.8;410.5;461;509.2;504.501;520.662
"AR54401";"Orel";"RUS46";"Russie";52.96666667;36.08333333;"O";1;0;1566;"1B3";;0;0;0;0;8893;73.90761364;152.962;234.974;312.432;349.25;345.409;329.849
"AR57430";"solikamsk";"RUS52";"Russie";59.63333333;56.76666667;"E";0;0;1573;;;0;0;0;0;1920;784.0607311;82.9;88.6;101.2;110.1;102.531;97.239
"AR22403";"arzamas";"RUS42";"Russie";55.4;43.81666667;"O";0;0;1578;;;0;0;0;0;4852;1686.294292;41.5;67.5;93.3;109;109.432;106.367
"AR11401";"Arkhanguelsk";"RUS05";"Russie";64.55;40.53333333;"O";1;0;1584;"1B2";;0;0;0;0;186;1172.632689;272.6;376.8;432.8;466.1;399.434;389.328
"AR20401";"Voronej";"RUS78";"Russie";51.66666667;39.18333333;"O";1;0;1586;"1B1";;0;0;0;0;9072;184.9987476;470.672;711.104;851.677;971.439;942.327;980.581
"AR36401";"Samara";"RUS59";"Russie";53.18333333;50.11666667;"O";1;1;1586;"1B1";;0;0;0;0;7077;682.6903059;901.6;1187.9;1367.3;1408.157;1323.936;1328.211
"AR80401";"Oufa";"RUS07";"Russie";54.73333333;55.96666667;"E";1;1;1586;"1B1";;0;0;0;0;5248;909.345667;546.9;770.9;969.3;1082.1;1042.437;1062.3
"AR71401";"Tioumen";"RUS70";"Russie";57.15;65.53333333;"E";1;0;1586;"1B3";;0;0;0;0;3264;30.18463249;150.2;268.5;359;481.914;516.059;581.758
"AR18401";"Volgograd";"RUS76";"Russie";48.7;44.48333333;"O";1;0;1589;"1B1";;0;0;0;0;13790;367.6619019;688.569;1000.8;1186.911;1323.553;1397.346;1396.94
"AR63401";"Saratov";"RUS60";"Russie";51.53333333;46;"O";1;1;1590;"1B1";;0;0;0;0;9332;1016.081478;689.968;910.441;1044.421;1114.71;1099.126;1074.596
"AR71410";"tobolsk";"RUS70";"Russie";58.2;68.25;"E";0;0;1590;;;0;0;0;0;2641;2576.73338;39;49.3;69.181;103.648;101.639;99.698
"AR14440";"staryjoskol";"RUS08";"Russie";51.3;37.83333333;"O";0;0;1593;;;0;0;0;0;9711;348.4384067;27.5;51.5;114.9;173.9;215.898;221.163
"AR14420";"valujki";"RUS08";"Russie";50.18333333;38.11666667;"O";0;0;1593;;;48276000000;127;"Pripiatskaya coal-bearing territory";1;12152;188.9060638;18.1;29.1;32.1;34.9;35.79;35.322
"AR14401";"Belgorod";"RUS08";"Russie";50.6;36.6;"O";1;0;1593;"1B3";;135000000000;37;"Dneprovsko-Donetzkaya  coal-bearing territory";1;11457;406.2589808;72.3;151.3;245.785;311.127;352.362;373.025
"AR33413";"slobodskoj";"RUS28";"Russie";58.71666667;50.18333333;"O";0;0;1599;;;0;0;0;0;2419;540.9347741;34.31;38.039;40.528;43.391;42.777;33.983
"AR65254501";"turinsk";"RUS63";"Russie";58.03333333;63.7;"E";0;0;1600;;;0;0;0;0;2792;1569.788211;18.8;22.2;22.9;23.2;19.313;17.923
"AR69401";"Tomsk";"RUS71";"Russie";56.5;84.96666667;"E";1;0;1604;"1B2";;816000000000;107;"Ob`-Irtyshskaya coal-bearing territory";1;4195;488.1121589;248.8;338.4;420.7;502;487.838;522.94
"AR17415";"vjazniki";"RUS75";"Russie";56.23333333;42.16666667;"O";0;0;1608;;;0;0;0;0;4159;3139.272193;39.4;42.7;45.9;45.4;40.398;41.252
"AR42233501";"lebedjanj";"RUS36";"Russie";53.01666667;39.15;"O";0;0;1613;;;0;0;0;0;7630;1823.02988;11.659;12.3;20;22.9;22.966;20.991
"AR68401";"Tambov";"RUS64";"Russie";52.71666667;41.43333333;"O";1;0;1636;"1B3";;0;0;0;0;7538;1199.576361;197.7;263.1;307.9;343.1;327.712;312.308
"AR98401";"Iakoutsk";"RUS15";"Russie";62.03333333;129.7333333;"E";1;1;1642;"1B4";;237200000;85;"Lensky basin";1;4799;649400.8969;74.3;111.349;158.528;198.71;226.429;269.486
"AR73401";"Oulianovsk";"RUS50";"Russie";54.31666667;48.38333333;"O";1;0;1648;"1B2";;0;0;0;0;5567;906.7079253;213.422;368.462;486.213;651.289;663.574;640.205
"AR89401";"Saransk";"RUS39";"Russie";54.18333333;45.18333333;"O";1;0;1651;"1B3";;0;0;0;0;5795;1478.605958;115.9;231.7;312.1;363.1;354.656;344.954
"AR76228501";"nerchinsk";"RUS80";"Russie";51.98333333;116.5833333;"E";0;0;1658;;;0;0;0;0;8679;252.80265;13.5;13.4;16.9;17;15.748;14.976
"AR56401";"Penza";"RUS51";"Russie";53.2;45.01666667;"O";1;0;1663;"1B2";;0;0;0;0;7471;491.0875509;255.5;373.7;482.9;542.6;518.025;517.137
"AR61415";"skopin";"RUS56";"Russie";53.81666667;39.55;"O";0;0;1663;;;108000000000;122;"Podmoscovny basin";1;6190;318.1339754;23.599;34.8;36.129;38.297;33.175;30.374
"AR25401";"Irkoutsk";"RUS17";"Russie";52.28333333;104.3;"E";1;0;1686;"1B2";;62239300;54;"Irkutsky basin";1;8935;4879.590191;378.9;480.9;590.4;673.8;641.124;635.185
"AR60404";"azov";"RUS55";"Russie";47.1;39.41666667;"O";0;0;1696;;;0;0;0;0;15970;2368.342935;39.9;59.3;75.1;80.3;82.09;82.882
"AR63428";"petrovsk";"RUS60";"Russie";52.31666667;45.38333333;"O";0;0;1698;;;0;0;0;0;8729;1813.004739;25;31;34.2;34.8;33.956;31.158
"AR40";"Saint-Petersbourg";"RUS57";"Russie";59.95;30.31666667;"O";1;0;1703;"1A1";;0;0;0;0;1477;20.8773457;3266.874;3983.679;4568.107;5005.419;4661.219;4848.742
"AR89234501";"krasnslobod";"RUS39";"Russie";54.43333333;43.78333333;"O";0;0;1706;;;0;0;0;0;5243;32536.333;;;10.1;11.3;10.843;10.151
"AR20233501";"pavlovskv";"RUS78";"Russie";50.45;40.11666667;"O";0;0;1709;;;0;0;0;0;11812;35143.54275;12.1;14.8;21;25.9;26.365;25.126
"AR27212501";"gusev";"RUS20";"Russie";54.58333333;22.2;"O";0;1;1724;;;0;0;0;0;5313;84.48390787;14.2;22.1;24.6;27;28.467;28.26
"AR57240501";"osa";"RUS52";"Russie";57.28333333;55.45;"E";0;1;1737;;;0;0;0;0;2820;66393.55899;12.7;15;20;24.1;23.452;21.191
"AR53401";"Orenbourg";"RUS47";"Russie";51.76666667;55.1;"E";1;1;1743;"1B2";;196000000000;166;"Uralo-Kaspiysky basin";1;8888;68.74964314;267.3;344.3;458.7;546.5;549.361;546.987
"AR66236501";"roslavlj";"RUS61";"Russie";53.95;32.85;"O";0;0;1755;;;0;0;0;0;6094;32.69012122;37.4;48.5;56;60.5;57.701;54.898
"AR80405";"belebej";"RUS07";"Russie";54.1;54.13333333;"E";0;1;1757;;;0;0;0;0;5876;1697.782004;26.2;32.5;43.2;53.4;60.928;60.183
"AR49208501";"valdaj";"RUS43";"Russie";57.96666667;33.25;"O";0;0;1770;;;0;0;0;0;2811;952.2911885;10.6;14.1;17.9;19.2;18.703;16.099
"AR49408";"borovichi";"RUS43";"Russie";58.4;33.9;"O";0;0;1770;;;0;0;0;0;2620;708.8245204;44.1;54.8;59.6;63;57.755;53.699
"AR28414";"Vychnii Volochek";"RUS74";"Russie";57.58333333;34.56666667;"O";0;0;1770;"3A2";;0;0;0;0;3032;840.4888995;66.4;73.7;71.7;64.8;56.405;52.326
"AR28440";"ostashkov";"RUS74";"Russie";57.15;33.1;"O";0;0;1770;;;108000000000;122;"Podmoscovny basin";1;3253;998.3457267;19.5;23.4;24.4;27.4;20.66;18.073
"AR58220501";"nevelj";"RUS54";"Russie";56.01666667;29.93333333;"O";0;0;1772;;;0;0;0;0;4225;642.7048302;14.6;17.8;20.6;22.5;18.545;16.324
"AR41460";"tihvin";"RUS35";"Russie";59.63333333;33.5;"O";0;0;1773;;;0;0;0;0;1776;707.2027806;18.4;34;58.6;71.4;63.338;58.843
"AR19222501";"vytegra";"RUS77";"Russie";61;36.45;"O";0;0;1773;;;0;0;0;0;821;82109.11564;11.3;11.7;12;12.9;11.4;10.49
"AR28222501";"kaljazin";"RUS74";"Russie";57.23333333;37.85;"O";0;0;1775;;;0;0;0;0;3206;1230.154462;11.1;11.3;13.9;15.5;14.82;13.87
"AR60437";"taganrog";"RUS55";"Russie";47.23333333;38.9;"O";0;0;1775;"3A1";;0;0;0;0;15808;1075.467997;202.1;254.2;276.4;291.6;281.947;257.692
"AR65432";"irbit";"RUS63";"Russie";57.66666667;63.06666667;"E";0;1;1775;;;0;0;0;0;3051;2314.883144;45.3;49.3;51.3;51.7;43.318;38.352
"AR81401";"Oulan-Oude";"RUS10";"Russie";51.83333333;107.6166667;"E";1;0;1775;"1B3";;0;0;0;0;9473;1541.410376;175.2;253.6;304.29;367.695;375.417;404.357
"AR25220501";"kirensk";"RUS17";"Russie";57.78333333;108.1;"E";0;0;1775;;;0;0;0;0;4542;146020.5387;14.4;14.5;16.2;16.1;13.712;12.652
"AR28445";"rzhev";"RUS74";"Russie";56.25;34.33333333;"O";0;0;1775;;;108000000000;122;"Podmoscovny basin";1;4528;460.5947928;49;60.7;68.9;69.8;63.729;62.026
"AR58240501";"pechory";"RUS54";"Russie";57.81666667;27.6;"O";0;0;1776;;;0;0;0;0;2913;2054.670645;;;10.3;11.9;13.056;11.195
"AR28405";"bezheck";"RUS74";"Russie";57.78333333;36.7;"O";0;0;1776;;;0;0;0;0;2900;3109.686486;26.9;30;30.6;30.4;28.643;24.517
"AR66208501";"gagarin";"RUS61";"Russie";55.55;35;"O";0;0;1776;;;108000000000;122;"Podmoscovny basin";1;4820;707.7123743;;15.7;20.8;28.9;28.789;31.721
"AR29223501";"maljarslavc";"RUS22";"Russie";55;36.46666667;"O";0;0;1776;;;108000000000;122;"Podmoscovny basin";1;5284;589.6310591;17.9;21.2;22.1;26.6;31.606;30.401
"AR66219501";"eljnja";"RUS61";"Russie";54.56666667;33.18333333;"O";0;;1776;;;;;;;;;;;;;10.798;10.095
"AR58233501";"ostrov";"RUS54";"Russie";57.33333333;28.35;"O";0;0;1777;;;0;0;0;0;3200;120.9213043;17.6;22.4;26.5;29.1;25.078;21.67
"AR58229501";"opochka";"RUS54";"Russie";56.71666667;28.65;"O";0;0;1777;;;0;0;0;0;3991;39751.16757;11.7;12.9;15;16.2;13.964;11.601
"AR41438";"luga";"RUS35";"Russie";58.73333333;29.85;"O";0;0;1777;;;0;0;0;0;2377;733.7374637;25.5;31.9;37.7;41.8;40.434;36.409
"AR86401";"Petrozavodsk";"RUS12";"Russie";61.78333333;34.35;"O";1;0;1777;"1B3";;0;0;0;0;709;148.5168408;135.3;184.5;234.1;269.5;266.16;263.54
"AR19430";"Tcherepovets";"RUS77";"Russie";59.13333333;37.91666667;"O";0;0;1777;"3A1";;0;0;0;0;2116;698.6302407;92.4;188.3;265.9;310.5;311.869;312.311
"AR70220501";"efremov";"RUS72";"Russie";53.15;38.11666667;"O";0;0;1777;;;0;0;0;0;7648;878.47885;28.7;48.2;53;56.7;47.256;42.35
"AR78415";"Rybinsk";"RUS79";"Russie";58.05;38.83333333;"O";0;0;1777;"3A1";;0;0;0;0;2727;286.2634568;181.7;218.3;238.6;251.4;222.653;200.771
"AR78417";"tutajev";"RUS79";"Russie";57.88333333;39.53333333;"O";0;0;1777;;;0;0;0;0;2883;1911.579888;17.2;16.8;23.5;39.8;42.644;41.001
"AR78215501";"danilov";"RUS79";"Russie";58.18333333;40.18333333;"O";0;0;1777;;;0;0;0;0;2970;1469.314521;16.9;17.5;17.5;18.9;17.245;15.861
"AR24405";"kineshma";"RUS18";"Russie";57.45;42.15;"O";0;0;1777;"3A2";;0;0;0;0;3139;188.6641795;116.5;125.8;131.2;133.9;119.936;110.365
"AR70206501";"beljov";"RUS72";"Russie";53.8;36.13333333;"O";0;0;1777;;;108000000000;122;"Podmoscovny basin";1;6252;2339.13429;17.2;17.7;18;18.3;16.083;13.918
"AR70408";"bogorodick";"RUS72";"Russie";53.76666667;38.13333333;"O";0;0;1777;;;108000000000;122;"Podmoscovny basin";1;6215;2769.952009;32.897;39.588;39.17;38.819;34.018;31.897
"AR54204501";"bolhov";"RUS46";"Russie";53.45;36;"O";0;0;1778;;;0;0;0;0;6486;35744.50606;11.3;13.3;13;13.1;12.148;11.421
"AR54405";"livny";"RUS46";"Russie";52.41666667;37.6;"O";0;0;1778;;;0;0;0;0;7930;1611.308316;23.9;37.3;44.9;51.7;52.841;50.43
"AR17410";"aleksandrov";"RUS75";"Russie";56.4;38.71666667;"O";0;0;1778;;;0;0;0;0;3907;1556.175439;73.8;89;98.8;104.4;96.895;90.784
"AR17230501";"kirzhach";"RUS75";"Russie";56.15;38.86666667;"O";0;0;1778;;;0;0;0;0;4117;298.2458847;22.61;27.942;34.397;36.86;32.937;30.044
"AR46212501";"egorjevsk";"RUS40";"Russie";55.38333333;39.03333333;"O";0;0;1778;"1B2";;0;0;0;0;4730;400.1631363;59.3;67.2;72.2;73.9;68.303;70.133
"AR42209501";"dankov";"RUS36";"Russie";53.25;39.15;"O";0;0;1778;;;0;0;0;0;6888;892.7466415;12.7;20;23.2;24.7;23.249;21.056
"AR17246520";"pokrov";"RUS75";"Russie";55.91666667;39.18333333;"O";0;0;1778;;;0;0;0;0;4387;4427.668296;;10;14.6;16;15.92;17.762
"AR17256501";"jurevpolski";"RUS75";"Russie";56.5;39.68333333;"O";0;0;1778;;;0;0;0;0;4039;1234.984536;16.8;22.1;21.1;22.2;19.906;19.588
"AR42256501";"chaplygin";"RUS36";"Russie";53.25;39.96666667;"O";0;0;1778;;;0;0;0;0;6911;1032.400424;10.7;13.7;13.4;14.3;13.656;12.656
"AR34420";"nerehta";"RUS30";"Russie";57.45;40.58333333;"O";0;0;1778;;;0;0;0;0;3203;547.9554243;22.3;25.7;26.7;29.3;26.002;22.817
"AR17252501";"sudogda";"RUS75";"Russie";55.95;40.86666667;"O";0;0;1778;;;0;0;0;0;4304;27.41314948;;10.5;12.4;14.2;13.328;11.848
"AR17425";"kovrov";"RUS75";"Russie";56.35;41.31666667;"O";0;0;1778;"3A1";;0;0;0;0;3930;2300.067823;98.6;123.3;142.9;159.9;155.499;145.492
"AR24411";"shuja";"RUS18";"Russie";56.85;41.36666667;"O";0;0;1778;"3A2";;0;0;0;0;3529;1323.720053;64.6;68.8;72.3;69.4;62.449;58.528
"AR34405";"buj";"RUS30";"Russie";58.48333333;41.53333333;"O";0;0;1778;;;0;0;0;0;2485;1715.689386;27.2;29.2;28.3;32.7;27.392;25.763
"AR17242501";"melenki";"RUS75";"Russie";55.33333333;41.63333333;"O";0;0;1778;;;0;0;0;0;4823;3192.67097;17.5;18.5;18.1;18.3;16.344;15.208
"AR17435";"murom";"RUS75";"Russie";55.56666667;42.03333333;"O";0;0;1778;"3A2";;0;0;0;0;4597;119.0225036;88.791;124.007;145.98;161.688;144.711;132.491
"AR17215501";"gorohovec";"RUS75";"Russie";56.2;42.7;"O";0;0;1778;;;0;0;0;0;4126;106.432276;;14;15;15.8;14.524;14.015
"AR22239501";"lukojanov";"RUS42";"Russie";55.03333333;44.48333333;"O";0;0;1778;;;0;0;0;0;5015;474.8991681;;10.2;11.4;12.3;12.856;14.949
"AR61217501";"mihajlov";"RUS56";"Russie";54.23333333;39.03333333;"O";0;0;1778;;;108000000000;122;"Podmoscovny basin";1;5612;634.8542002;13.529;14.2;14.2;15.3;13.295;11.783
"AR61230501";"rjazhsk";"RUS56";"Russie";53.71666667;40.06666667;"O";0;0;1778;;;108000000000;122;"Podmoscovny basin";1;6278;2366.596651;14.754;25.4;25.3;27.2;22.85;21.676
"AR38410";"ljgov";"RUS32";"Russie";51.66666667;35.26666667;"O";0;0;1779;;;0;0;0;0;9087;2716.655286;21.3;25.1;26.5;25.6;23.783;21.452
"AR38415";"schigry";"RUS32";"Russie";51.86666667;36.93333333;"O";0;0;1779;;;0;0;0;0;8768;1676.542264;11.4;17.1;20.6;21.2;19.582;17.043
"AR14244501";"novyjoskol";"RUS08";"Russie";50.76666667;37.86666667;"O";0;0;1779;;;0;0;0;0;11824;1780.302467;12.9;15.9;17.9;20.1;20.892;19.53
"AR20231501";"ostrogozhsk";"RUS78";"Russie";50.86666667;39.06666667;"O";0;0;1779;;;0;0;0;0;11823;4057.535638;28.4;29.9;34;34.5;34.585;33.842
"AR42401";"Lipetsk";"RUS36";"Russie";52.61666667;39.6;"O";1;0;1779;"1B2";;0;0;0;0;7623;2206.814718;206.987;349.752;460.49;530.442;553.592;554.922
"AR42248501";"usmanj";"RUS36";"Russie";52.05;39.73333333;"O";0;0;1779;;;0;0;0;0;8721;3361.798285;11.9;20.2;20.1;20.9;20.133;18.752
"AR20204501";"bobrov";"RUS78";"Russie";51.08333333;40.03333333;"O";0;0;1779;;;0;0;0;0;10230;538.6589363;17.848;18;21.4;21.3;20.806;19.738
"AR68415";"michurinsk";"RUS64";"Russie";52.9;40.48333333;"O";0;0;1779;"2A";;0;0;0;0;7303;2441.197163;89.919;109.235;116.013;124.415;96.093;98.758
"AR68420";"morshansk";"RUS64";"Russie";53.45;41.8;"O";0;0;1779;;;0;0;0;0;6810;2468.527342;40.9;44.2;47.7;50.1;44.486;41.55
"AR20410";"borisglebsk";"RUS78";"Russie";51.36666667;42.08333333;"O";0;0;1779;"2A";;0;0;0;0;9881;1611.098038;54.4;63.7;67.6;72.3;69.392;65.585
"AR68405";"kirsanov";"RUS64";"Russie";52.65;42.73333333;"O";0;0;1779;;;0;0;0;0;7879;1104.183279;15.7;21.8;21.3;20.8;18.506;17.24
"AR22247501";"semjonov";"RUS42";"Russie";56.8;44.5;"O";0;0;1779;;;0;0;0;0;3829;590.974516;19.8;23.6;25.2;26.3;25.298;24.472
"AR22248501";"sergach";"RUS42";"Russie";55.53333333;45.46666667;"O";0;0;1779;;;0;0;0;0;4657;2461.28653;;22.5;24.4;25.2;22.887;21.387
"AR38234501";"ryljsk";"RUS32";"Russie";51.56666667;34.68333333;"O";0;0;1779;;;48276000000;127;"Pripiatskaya coal-bearing territory";1;9510;10107.93519;12.7;16.4;18.3;19.5;17.603;15.667
"AR38226501";"obojanj";"RUS32";"Russie";51.21666667;36.25;"O";0;0;1779;;;48276000000;127;"Pripiatskaya coal-bearing territory";1;9939;2338.512781;11.9;13.4;14.4;15.4;14.618;13.562
"AR20205501";"boguchar";"RUS78";"Russie";49.93333333;40.55;"O";0;;1779;;;;;;;;;;;;;13.756;11.811
"AR41475";"shliselburg";"RUS35";"Russie";59.95;31.03333333;"O";0;0;1780;;;0;0;0;0;1460;1176.331095;16.136;18.06;21.304;24.947;23.078;24.023
"AR11420";"onega";"RUS05";"Russie";63.91666667;38.08333333;"O";0;0;1780;;;0;0;0;0;267;585.5970796;21.3;25;25;26.1;23.43;21.359
"AR19224501";"grjazovec";"RUS77";"Russie";58.88333333;40.25;"O";0;0;1780;;;0;0;0;0;2629;457.3647266;;11.6;13.8;16.4;16.172;15.528
"AR11205501";"veljsk";"RUS05";"Russie";61.06666667;42.1;"O";0;0;1780;;;0;0;0;0;956;406.2479609;16.9;21.9;24.6;26;26.241;23.885
"AR63410";"balashov";"RUS60";"Russie";51.55;43.16666667;"O";0;0;1780;"2A";;0;0;0;0;10725;1946.0407;64.3;83.1;93.1;97;98.33;82.222
"AR56251501";"nizhnlomov";"RUS51";"Russie";53.53333333;43.68333333;"O";0;0;1780;;;0;0;0;0;6596;1095.573504;13.9;17.5;22.7;26.6;24.249;22.725
"AR56256501";"serdobsk";"RUS51";"Russie";52.46666667;44.21666667;"O";0;0;1780;;;0;0;0;0;8190;2547.676842;26.1;33.8;39.9;43.5;37.738;35.387
"AR18415";"kamyshin";"RUS76";"Russie";50.08333333;45.4;"O";0;0;1780;"3A2";;0;0;0;0;11978;2034.933967;76.2;120.9;139.5;152.8;158.737;148.269
"AR97404";"alatyr";"RUS69";"Russie";54.85;46.58333333;"O";0;0;1780;;;0;0;0;0;5165;5.78931326;40.1;43.5;45.3;46.6;43.161;38.202
"AR56405";"kuzneck";"RUS51";"Russie";53.11666667;46.6;"O";0;0;1780;"3A2";;0;0;0;0;7128;1323.683872;56.9;84.1;93.6;98.6;92.05;88.883
"AR63413";"voljsk";"RUS60";"Russie";52.05;47.38333333;"O";0;1;1780;"3B2";;0;0;0;0;8582;573.7166703;63.4;69.2;65.7;65.7;71.124;66.52
"AR33250501";"jaransk";"RUS28";"Russie";57.3;47.88333333;"O";0;0;1780;;;0;0;0;0;3696;6610.791719;11.8;15.4;17.8;20.5;19.723;17.252
"AR63445";"hvalynsk";"RUS60";"Russie";52.48333333;48.1;"O";0;1;1780;;;0;0;0;0;8304;17862.21796;17;16.2;15.6;14.9;13.752;13.094
"AR92412";"buinsk";"RUS65";"Russie";54.96666667;48.28333333;"O";0;0;1780;;;0;0;0;0;5164;171.2883825;;14.9;15.6;16.8;19.736;20.342
"AR87401";"Syktyvkar";"RUS29";"Russie";61.66666667;50.81666667;"O";1;0;1780;"1B3";;0;0;0;0;687;2100.0815;64.5;125.1;171;232.1;230.011;235.006
"AR94420";"glazov";"RUS49";"Russie";58.13333333;52.65;"E";0;1;1780;"3A2";;0;0;0;0;2859;550.8838573;59;68.3;81.1;104.1;100.894;95.835
"AR94440";"sarapul";"RUS49";"Russie";56.46666667;53.8;"E";0;1;1780;"3A2";;0;0;0;0;3901;3472.100988;68.7;97;106.6;110.4;103.141;101.39
"AR92415";"elabuga";"RUS65";"Russie";55.76666667;52.03333333;"O";0;1;1780;;;76767000000;63;"Kamskaya  coal-bearing territory";1;4549;11214.94095;22;31.7;35.6;53.5;68.663;70.75
"AR49238501";"soljcy";"RUS43";"Russie";58.11666667;30.31666667;"O";0;0;1781;;;0;0;0;0;2684;132.1419338;;;11.7;11.8;11.264;10.086
"AR15254501";"surazh";"RUS11";"Russie";53.01666667;32.4;"O";0;0;1781;;;0;0;0;0;7209;35.21483737;;10.3;10.6;12.6;12.046;11.64
"AR15250501";"starodub";"RUS11";"Russie";52.58333333;32.76666667;"O";0;0;1781;;;0;0;0;0;7658;2261.324435;11.7;15.1;17.2;18.9;18.643;19.01
"AR46221501";"klin";"RUS40";"Russie";56.33333333;36.7;"O";0;0;1781;"3A2";;0;0;0;0;4184;345.7755343;53.3;80.9;91.5;94.9;83.178;80.584
"AR46218501";"istra";"RUS40";"Russie";55.91666667;36.86666667;"O";0;0;1781;;;0;0;0;0;4320;3191.108454;;16.3;30.3;35;33.652;35.106
"AR46405";"bronnicy";"RUS40";"Russie";55.43333333;38.26666667;"O";0;0;1781;;;0;0;0;0;4759;8175.563144;10.1;11.8;14.2;16.1;18.232;21.102
"AR46438";"kolomna";"RUS40";"Russie";55.08333333;38.78333333;"O";0;0;1781;"3B1";;0;0;0;0;4971;143.2981163;117.785;135.9;147.3;161.9;167.635;162.854
"AR63404";"atkarsk";"RUS60";"Russie";51.86666667;45;"O";0;1;1781;;;0;0;0;0;8730;1101.608479;27.8;28.9;29.1;28.9;27.907;25.62
"AR88415";"kozjmodemsk";"RUS38";"Russie";56.33333333;46.56666667;"O";0;0;1781;;;0;0;0;0;4080;13998.89964;12.6;15.3;18.8;24.7;22.771;21.262
"AR97401";"Tcheboksary";"RUS69";"Russie";56.13333333;47.25;"O";1;0;1781;"1B3";;0;0;0;0;4174;2637.104508;104.4;255;392.9;534.4;566.478;577.758
"AR97241501";"civiljsk";"RUS69";"Russie";55.86666667;47.48333333;"O";0;0;1781;;;0;0;0;0;4631;7420.720546;;;;10.1;12.967;13.478
"AR88401";"Iochkar-Ola";"RUS38";"Russie";56.63333333;47.86666667;"O";1;0;1781;"1B3";;0;0;0;0;3695;153.1473153;89.845;169.532;211.084;255.191;273.329;265.528
"AR36435";"syzranj";"RUS59";"Russie";53.16666667;48.46666667;"O";0;0;1781;"3A1";;0;0;0;0;7024;2383.956777;182.2;207.3;208.3;210.377;213.443;206.017
"AR53412";"buzuluk";"RUS47";"Russie";52.76666667;52.26666667;"E";0;1;1781;"2A";;0;0;0;0;8468;68.79951569;54.9;67.1;76;84;87.286;82.655
"AR53408";"buguruslan";"RUS47";"Russie";53.61666667;52.41666667;"E";0;1;1781;;;0;0;0;0;6856;564.5094189;42.5;49.5;54.4;54.1;53.893;49.737
"AR57401";"Perm";"RUS52";"Russie";58;56.25;"E";1;0;1781;"1B1";;0;0;0;0;2751;1282.401471;688.231;913.325;1063.48;1158.428;1064.657;1043.459
"AR57422";"kungur";"RUS52";"Russie";57.43333333;56.93333333;"E";0;0;1781;"3A2";;0;0;0;0;3138;1998.055565;64.8;74.5;80.1;81.4;68.943;66.11
"AR65468";"krasnufimsk";"RUS63";"Russie";56.61666667;57.76666667;"E";0;0;1781;;;0;0;0;0;3743;38.54964099;37.3;38.4;41.2;45.6;43.595;39.762
"AR65403";"alapajevsk";"RUS63";"Russie";57.85;61.7;"E";0;1;1781;;;0;0;0;0;3152;942.9035365;55.84;59.861;59.833;62.057;55.41;48.196
"AR65440";"kamyshlov";"RUS63";"Russie";56.85;62.71666667;"E";0;1;1781;;;0;0;0;0;3486;1651.798282;30.1;30.8;31.9;33.5;28.914;26.875
"AR37405";"shadrinsk";"RUS31";"Russie";56.08333333;63.63333333;"E";0;1;1781;"3A2";;0;0;0;0;4688;1296.321798;56.1;72.6;81.5;86.7;80.865;77.744
"AR92255501";"tetjushi";"RUS65";"Russie";54.93333333;48.83333333;"O";0;0;1781;;;76767000000;63;"Kamskaya  coal-bearing territory";1;5164;37087.0322;;;10.2;10.5;11.931;11.596
"AR92440";"chistopolj";"RUS65";"Russie";55.36666667;50.63333333;"O";0;0;1781;"3A2";;76767000000;63;"Kamskaya  coal-bearing territory";1;5249;73343.7598;51.9;60;64.3;65.5;63.029;60.703
"AR92238501";"mamadysh";"RUS65";"Russie";55.7;51.4;"O";0;1;1781;;;76767000000;63;"Kamskaya  coal-bearing territory";1;4588;25240.96852;;;10.3;11.8;13.509;14.432
"AR92410";"bugulma";"RUS65";"Russie";54.53333333;52.78333333;"O";0;1;1781;"3B2";;76767000000;63;"Kamskaya  coal-bearing territory";1;5394;1517.205372;61;72.4;80.5;89.6;93.014;89.144
"AR92240501";"menzelisnsk";"RUS65";"Russie";55.71666667;53.1;"O";0;1;1781;;;76767000000;63;"Kamskaya  coal-bearing territory";1;4548;48807.75384;11.8;15.9;16.7;15.2;16.73;16.474
"AR80415";"birsk";"RUS07";"Russie";55.41666667;55.53333333;"E";0;1;1781;;;76767000000;63;"Kamskaya  coal-bearing territory";1;5156;57474.3121;24.8;29.6;30.2;34.9;39.992;41.637
"AR37401";"Kourgan";"RUS31";"Russie";55.45;65.33333333;"E";1;0;1782;"1B3";;0;0;0;0;4715;675.4154059;145.7;243.9;309.9;355.5;345.515;333.64
"AR71415";"jalutorovsk";"RUS70";"Russie";56.65;66.3;"E";0;0;1782;;;0;0;0;0;3664;151.0629901;20.2;25.4;32.9;36.8;36.088;36.494
"AR71405";"ishim";"RUS70";"Russie";56.11666667;69.5;"E";0;0;1782;;;0;0;0;0;4139;2064.036985;47.8;56.2;62.5;66.4;67.757;65.229
"AR80445";"sterlitamak";"RUS07";"Russie";53.63333333;55.95;"E";0;0;1782;"3A1";;26504000000;193;"Yuzhno-Uralsky basin";1;6592;677.6235065;111.6;184.9;220.1;247.5;264.362;273.432
"AR52401";"Omsk";"RUS45";"Russie";54.96666667;73.38333333;"E";1;0;1782;"1B1";;816000000000;107;"Ob`-Irtyshskaya coal-bearing territory";1;5039;940.5555188;581.1;832.563;1031.768;1170.398;1156.849;1153.971
"AR52415";"tara";"RUS45";"Russie";56.9;74.36666667;"E";0;0;1782;;;816000000000;107;"Ob`-Irtyshskaya coal-bearing territory";1;4888;171902.6765;22.6;22.4;23.2;26.2;26.888;27.322
"AR50415";"kujbyshev";"RUS44";"Russie";55.45;78.3;"E";0;0;1782;;;816000000000;107;"Ob`-Irtyshskaya coal-bearing territory";1;4692;549.841327;30.4;40.2;46.5;51.2;48.848;45.298
"AR86410";"sortavala";"RUS12";"Russie";61.7;30.66666667;"O";0;0;1783;;;0;0;0;0;749;1489.001967;17.6;22.2;21.6;22.6;21.131;19.215
"AR25424";"nizhnudinsk";"RUS17";"Russie";54.9;99.01666667;"E";0;0;1783;;;0;0;0;0;6479;1278.867982;38.8;39.7;41.4;43.8;39.624;37.056
"AR41422";"kingisepp";"RUS35";"Russie";59.36666667;28.6;"O";0;0;1784;;;0;0;0;0;1938;1122.03376;;17.3;38.8;50;50.295;48.667
"AR75452";"troickch";"RUS66";"Russie";54.08333333;61.56666667;"E";0;1;1784;"3A2";;0;0;0;0;5812;2063.573565;76.3;85.5;87.5;90.1;83.862;78.637
"AR41432";"lodejnpolje";"RUS35";"Russie";60.73333333;33.55;"O";0;0;1785;;;0;0;0;0;1225;546.8512934;17.5;19.6;23.2;26.7;22.83;21.053
"AR86212501";"kemj";"RUS12";"Russie";64.95;34.6;"O";0;0;1785;;;0;0;0;0;160;158.3725557;18.1;21;21;18.5;14.62;13.061
"AR90230501";"mozdok";"RUS48";"Russie";43.75;44.65;"O";0;1;1785;;;0;0;0;0;18314;585.3592647;25.6;32.4;34.4;38;42.865;38.748
"AR82430";"kizljar";"RUS13";"Russie";43.83333333;46.7;"O";0;1;1785;;;0;0;0;0;18249;21.68241528;25.6;29.7;31.3;39.7;48.457;49.169
"AR41420";"gatchina";"RUS35";"Russie";59.56666667;30.13333333;"O";0;0;1796;;;0;0;0;0;1802;1104.912951;36.7;63.3;75.2;79.7;88.42;92.566
"AR60401";"Rostov-sur-le-Don";"RUS55";"Russie";47.23333333;39.71666667;"O";1;0;1796;"1B1";;0;0;0;0;15835;1818.733255;680.2;896.1;1054.2;1144.6;1213.717;1243.691
"AR33241501";"urzhum";"RUS28";"Russie";57.11666667;50;"O";0;0;1796;;;0;0;0;0;3348;75395.43156;10.9;11.4;12;12.1;11.514;10.213
"AR65401";"Ekaterinbourg";"RUS63";"Russie";56.83333333;60.58333333;"E";1;1;1796;"1B1";;0;0;0;0;3525;1853.354815;864.1;1130.9;1327.1;1498;1432.928;1496.136
"AR75401";"Tcheliabinsk";"RUS66";"Russie";55.15;61.4;"E";1;1;1796;"1B1";;0;0;0;0;4960;567.1269303;951.859;1126.889;1264.863;1377.316;1303.838;1330.245
"AR18208501";"dubovka";"RUS76";"Russie";49.05;44.83333333;"O";0;0;1803;;;0;0;0;0;13553;14771.77873;11.7;13.4;15;13.7;15.083;14.345
"AR60427";"novcherkask";"RUS55";"Russie";47.43333333;40.08333333;"O";0;0;1805;"6A";;0;0;0;0;15601;263.824346;123.139;172.668;196.717;201.173;184.47;169.039
"AR81233501";"kjahta";"RUS10";"Russie";50.35;106.45;"E";0;0;1805;;;0;0;0;0;11543;23219.1863;10.3;15.3;15;18.3;18.391;20.041
"AR15420";"novozybkov";"RUS11";"Russie";52.53333333;31.93333333;"O";0;0;1809;;;0;0;0;0;7787;2476.810623;25.9;34.4;41.2;44.9;43.038;40.552
"AR30401";"Petropavlovsk-Kamtchatski";"RUS23";"Russie";53.01666667;158.65;"E";1;0;1822;"1B3";;0;0;0;0;429;1137958.755;85.6;163.403;225.797;280.687;198.028;179.526
"AR52418";"tjukalinsk";"RUS45";"Russie";55.86666667;72.2;"E";0;0;1823;;;816000000000;107;"Ob`-Irtyshskaya coal-bearing territory";1;4865;52516.35188;10.2;10.4;11.5;12.2;12.007;11.276
"AR63230501";"novouzensk";"RUS60";"Russie";50.45;48.15;"O";0;0;1835;;;0;0;0;0;11880;2420.624469;12.8;13.4;14.5;16.6;16.881;17.015
"AR63435";"pugachjov";"RUS60";"Russie";52.01666667;48.8;"O";0;1;1835;;;0;0;0;0;8551;1107.442841;32.7;34;39.05;40.9;41.436;41.705
"AR82410";"derbent";"RUS13";"Russie";42.06666667;48.3;"O";0;1;1840;;;0;0;0;0;19468;1305.291657;54.1;67.6;82.2;100.1;127.377;150.632
"AR29236501";"suhinichi";"RUS22";"Russie";54.1;35.35;"O";0;0;1840;;;108000000000;122;"Podmoscovny basin";1;5737;1699.062285;12.7;16.5;16.4;17.8;16.387;16.295
"AR76401";"Tchita";"RUS80";"Russie";52.03333333;113.5;"E";1;0;1851;"1B3";;1853400000;43;"Zabaikal`skaya coal-bearing territory";1;9180;871.5512871;171.8;241.4;302.6;365.8;316.643;323.964
"AR32422";"mariinsk";"RUS25";"Russie";56.21666667;87.75;"E";0;0;1856;;;0;0;0;0;4082;745.7877378;40.8;39.7;39.5;41;42.977;40.522
"AR10401";"Blagoveschensk";"RUS04";"Russie";50.28333333;127.5333333;"E";1;0;1856;"1B3";;0;0;0;0;11689;182.6058464;94.7;127.8;172;205.6;219.221;214.397
"AR82401";"Makhatchkala";"RUS13";"Russie";42.98333333;47.48333333;"O";1;1;1857;"1B3";;0;0;0;0;18829;1017.865378;148.265;234.7;312.475;386.985;584.307;758.892
"AR90401";"Vladikavkaz";"RUS48";"Russie";43.01666667;44.68333333;"O";1;1;1860;"1B3";;0;0;0;0;18763;892.9226028;164.4;243.759;289.087;311.46;330.182;328.41
"AR75412";"zlatoust";"RUS66";"Russie";55.16666667;59.66666667;"E";0;1;1865;"3B1";;0;0;0;0;4920;2086.244706;161.3;180.5;197.8;207.8;194.551;174.985
"AR53423";"Orsk";"RUS47";"Russie";51.2;58.56666667;"E";0;0;1865;"3B1";;7458700000;180;"Chelyabinsky basin";1;9948;569.8639546;230.7;308.7;341.3;376.8;357.278;337.936
"AR53425";"soljileck";"RUS47";"Russie";51.16666667;54.98333333;"E";0;1;1865;;;196000000000;166;"Uralo-Kaspiysky basin";1;10068;440.473334;21.6;22.3;21.7;23.8;26.883;28.369
"AR82405";"bujnaksk";"RUS13";"Russie";42.81666667;47.11666667;"O";0;1;1866;;;0;0;0;0;18869;1049.709664;33;37.9;46.6;56.8;61.437;65.735
"AR60440";"shahty";"RUS55";"Russie";47.7;40.23333333;"O";0;0;1867;"3B1";;82076000000;38;"Donetzky basin";1;15350;353.1148179;230.681;240.678;246.684;266.622;263.585;251.406
"AR79401";"majkop";"RUS01";"Russie";44.6;40.08333333;"O";1;1;1870;"1B3";;0;0;0;0;17778;1048.422009;86.806;117.277;135.824;158.138;167.433;154.978
"AR24401";"Ivanovo";"RUS18";"Russie";57;40.98333333;"O";1;0;1871;"1B2";;0;0;0;0;3361;1088.583079;355.5;441.9;489.6;508;460.482;438.685
"AR96401";"groznyj";"RUS67";"Russie";43.31666667;45.7;"O";0;1;1879;"1B2";;0;0;0;0;18553;610.0708199;251.75;341.3;375.3;399.7;210.72;271.596
"AR50401";"Novossibirsk";"RUS44";"Russie";55.03333333;82.91666667;"E";1;0;1903;"1B1";;816000000000;107;"Ob`-Irtyshskaya coal-bearing territory";1;4991;52.43707802;972.987;1299.4;1491.498;1661.119;1627.866;1687.247
"AR10412";"zeja";"RUS04";"Russie";53.73333333;127.25;"E";0;0;1906;;;0;0;0;0;7444;86708.14518;;16.7;29;32;27.795;25.042
"AR10430";"svobodnyj";"RUS04";"Russie";51.38333333;128.1333333;"E";0;0;1912;"4A";;41406000000;100;"Nizhne-Zeisky basin";1;9759;641.4592417;56.9;62.9;74.5;80;63.889;58.594
"AR63407";"Balakovo";"RUS60";"Russie";52;47.8;"O";0;1;1913;;;0;0;0;0;8582;1691.875159;36.4;103.5;151.6;197.4;200.47;199.573
"AR93401";"Kyzyl";"RUS73";"Russie";51.71666667;94.45;"E";0;0;1914;"1B5";;2976800000;164;"Ulukhemsky basin";1;7406;250208.6392;34.5;51.7;70.047;91.897;114.568;124.925
"AR47401";"Mourmansk";"RUS41";"Russie";68.96666667;33.08333333;"O";1;0;1916;"1B2";;0;0;0;0;22;73.55556628;271.14;370.436;455.095;560.912;418.642;382.344
"AR28426";"kimry";"RUS74";"Russie";56.86666667;37.35;"O";0;0;1917;;;0;0;0;0;3589;3362.005114;41.2;53.4;57.8;61.5;53.65;49.623
"AR46457";"orehovozuev";"RUS40";"Russie";55.8;38.96666667;"O";0;0;1917;"3A1";;0;0;0;0;4410;2853.230758;108.3;120.1;132.3;137.2;122.248;120.62
"AR20208501";"buturlinvka";"RUS78";"Russie";50.83333333;40.6;"O";0;0;1917;;;0;0;0;0;10685;1448.104168;13.3;21.6;23.6;29.3;28.627;27.208
"AR11410";"Kotlas";"RUS05";"Russie";61.25;46.65;"O";0;0;1917;;;0;0;0;0;859;688.4218692;62.555;66.626;73.948;82.491;74.082;73.422
"AR64405";"aleksahalin";"RUS58";"Russie";50.9;142.15;"E";0;1;1917;;;0;0;0;0;11506;183042.6837;22.2;20.3;19.2;19.2;12.826;10.613
"AR25445";"cheremhovo";"RUS17";"Russie";53.15;103.0666667;"E";0;0;1917;"3B1";;62239300;54;"Irkutsky basin";1;7083;598.9562377;122.8;98.7;76.7;73.6;60.107;52.65
"AR50405";"barabinsk";"RUS44";"Russie";55.35;78.35;"E";0;0;1917;;;816000000000;107;"Ob`-Irtyshskaya coal-bearing territory";1;4741;57.82476944;40.9;37.3;37.3;36.5;32.501;30.394
"AR46254504";"taldom";"RUS40";"Russie";56.73333333;37.53333333;"O";0;0;1918;;;0;0;0;0;3588;1146.225254;10.4;11.9;13.1;14.4;13.334;13.819
"AR24407";"tejkovo";"RUS18";"Russie";56.85;40.55;"O";0;0;1918;;;0;0;0;0;3554;1087.676825;28.3;41.6;34.7;38.1;36.686;34.993
"AR24409";"furmanov";"RUS18";"Russie";57.25;41.1;"O";0;0;1918;;;0;0;0;0;3203;231.0196259;38.2;40.2;44.2;46.2;39.691;36.149
"AR24223501";"rodniki";"RUS18";"Russie";57.1;41.73333333;"O";0;0;1918;;;0;0;0;0;3341;277.0751712;29.3;30;30.6;32.1;28.447;26.318
"AR63418";"krasnoarmsk";"RUS60";"Russie";51.01666667;45.7;"O";0;1;1918;;;0;0;0;0;11607;12688.75122;13.6;17.5;17.6;24.1;25.411;24.362
"AR63422";"marks";"RUS60";"Russie";51.7;46.75;"O";0;1;1918;;;0;0;0;0;9196;34087.63567;13.1;17.1;25.7;31.9;32.849;31.535
"AR94401";"Ijevsk";"RUS49";"Russie";56.85;53.21666667;"E";1;1;1918;"1B2";;0;0;0;0;3544;2655.126852;285.3;422.4;548.7;635.1;632.14;628.116
"AR32401";"Kemerovo";"RUS25";"Russie";55.33333333;86.06666667;"E";1;0;1918;"1B2";;38041000000;78;"Kuznetsky basin";1;4769;139.4104794;346.779;453.996;539.359;590.907;560.938;561.526
"AR46215501";"sergiposad";"RUS40";"Russie";56.3;38.13333333;"O";0;0;1919;;;0;0;0;0;4037;716.204676;89.9;110.6;129.2;138;134.538;132.49
"AR22242501";"pavlovo";"RUS42";"Russie";55.95;43.06666667;"O";0;0;1919;;;0;0;0;0;4462;3322.18744;47.9;63.2;68.4;71.5;64.814;60.699
"AR73405";"dimitrvgrad";"RUS50";"Russie";54.21666667;49.6;"O";0;0;1919;;;0;0;0;0;5628;2005.139556;50.7;81.4;106;123.6;130.871;122.549
"AR65476";"Nijni-Taguil";"RUS63";"Russie";57.91666667;59.96666667;"E";0;1;1919;"3B1";;0;0;0;0;2830;689.0704218;397.2;444.6;473.6;515.6;469.427;433.932
"AR65473";"nevjansk";"RUS63";"Russie";57.48333333;60.2;"E";0;1;1919;;;0;0;0;0;3142;1410.068905;30.9;29.8;32.4;29.8;26.644;24.555
"AR63440";"rtischevo";"RUS60";"Russie";52.25;43.78333333;"O";0;0;1920;;;0;0;0;0;8736;450.6007628;32.7;37.1;41.1;44.3;44.185;41.295
"AR49220501";"malavishera";"RUS43";"Russie";58.85;32.21666667;"O";0;0;1921;;;0;0;0;0;2323;844.441144;16.1;15.4;15.7;15.6;14.182;12.461
"AR83401";"Naltchik";"RUS19";"Russie";43.48333333;43.61666667;"O";1;0;1921;"1B3";;0;0;0;0;18455;214.5947142;100.7;164.7;230.8;262.7;308.749;271.774
"AR33228501";"omutninsk";"RUS28";"Russie";58.66666667;52.18333333;"O";0;0;1921;;;0;0;0;0;2612;1067.337373;24.8;28.8;28.5;29.2;26.065;23.618
"AR25420";"zima";"RUS17";"Russie";53.91666667;102.05;"E";0;0;1922;;;0;0;0;0;6479;336.2214725;38.5;41.6;48.1;41.8;34.899;32.522
"AR20247501";"rossosh";"RUS78";"Russie";50.2;39.58333333;"O";0;0;1923;;;0;0;0;0;11812;597.9253584;30.2;36.4;44;57;62.923;62.865
"AR53404";"abdulino";"RUS47";"Russie";53.68333333;53.65;"E";0;1;1923;;;0;0;0;0;6470;114.3889944;30;26;23.1;22.6;21.537;20.183
"AR80410";"beloreck";"RUS07";"Russie";53.96666667;58.4;"E";0;0;1923;"3B2";;0;0;0;0;5963;2007.860331;59.3;67.1;71.2;72.4;71.093;68.804
"AR15415";"klincy";"RUS11";"Russie";52.75;32.23333333;"O";0;0;1925;;;0;0;0;0;7787;3113.661783;42;58.1;67.1;71.2;67.325;62.51
"AR28238501";"lihoslavl";"RUS74";"Russie";57.11666667;35.46666667;"O";0;0;1925;;;0;0;0;0;3307;196.0601023;;11.7;12.8;13.4;12.515;12.259
"AR19205501";"babajevo";"RUS77";"Russie";59.38333333;35.95;"O";0;0;1925;;;0;0;0;0;1936;75.22364076;12;12.3;12.9;14.2;12.604;12.074
"AR24403";"vichuga";"RUS18";"Russie";57.2;41.91666667;"O";0;0;1925;"3A2";;0;0;0;0;3238;1292.151313;51.7;52.6;52;49.7;40.87;37.609
"AR24235501";"juzha";"RUS18";"Russie";56.58333333;42.01666667;"O";0;0;1925;;;0;0;0;0;3717;383.2558563;23.1;23.8;22.1;20.9;15.636;14.17
"AR22240501";"lyskovo";"RUS42";"Russie";56.03333333;45.03333333;"O";0;0;1925;;;0;0;0;0;3992;30036.56217;16.2;21.4;24.3;25;23.901;21.882
"AR97407";"kanash";"RUS69";"Russie";55.51666667;47.5;"O";0;0;1925;;;0;0;0;0;4646;522.6120852;33.6;40.7;46.9;54.6;50.593;45.608
"AR65470";"kushva";"RUS63";"Russie";58.28333333;59.73333333;"E";0;1;1925;;;0;0;0;0;2610;3366.667051;46.2;43.8;43.3;43.1;35.555;30.166
"AR50257501";"cherepanovo";"RUS44";"Russie";54.21666667;83.36666667;"E";0;0;1925;;;0;0;0;0;5641;1056.553669;21.2;21.1;21;22.1;20.496;19.803
"AR32440";"tajga";"RUS25";"Russie";56.06666667;85.61666667;"E";0;0;1925;;;0;0;0;0;4195;602.997411;33.9;26.9;25.2;26.2;24.726;25.33
"AR25410";"bodajbo";"RUS17";"Russie";57.85;114.2;"E";0;0;1925;;;0;0;0;0;4408;159545.2909;18.2;13.9;14.4;20.9;16.504;15.331
"AR25436";"usoljesibir";"RUS17";"Russie";52.75;103.65;"E";0;0;1925;;;62239300;54;"Irkutsky basin";1;8083;2587.386886;48.5;86.7;103;106.5;90.161;83.364
"AR32419";"leninskkuzn";"RUS25";"Russie";54.65;86.16666667;"E";0;0;1925;"3B1";;38041000000;78;"Kuznetsky basin";1;5304;1350.767228;270;277.983;282.768;319.7;253.259;234.389
"AR46242501";"ozjory";"RUS40";"Russie";54.85;38.55;"O";0;0;1925;;;108000000000;122;"Podmoscovny basin";1;5129;1133.885737;24.8;26.1;26.7;28.2;25.704;25.788
"AR50418";"tatarsk";"RUS44";"Russie";55.21666667;75.96666667;"E";0;0;1925;;;816000000000;107;"Ob`-Irtyshskaya coal-bearing territory";1;4973;686.2524323;30.8;29.6;30.9;30.4;26.051;24.217
"AR66258501";"jarcevo";"RUS61";"Russie";55.06666667;32.68333333;"O";0;0;1926;;;0;0;0;0;5159;453.3970023;25.6;36.7;40.7;53.2;52.617;47.853
"AR28408";"bologoje";"RUS74";"Russie";57.86666667;34.05;"O";0;0;1926;;;0;0;0;0;2967;3247.081358;30.3;33.9;31.3;35.9;26.612;23.499
"AR46238501";"narofominsk";"RUS40";"Russie";55.38333333;36.73333333;"O";0;0;1926;;;0;0;0;0;4942;1061.81648;35.4;48.7;55.9;58.3;70.475;64.64
"AR60250501";"saljsk";"RUS55";"Russie";46.48333333;41.53333333;"O";0;1;1926;;;0;0;0;0;16430;467.5513183;36;50.2;57;61.1;61.775;61.312
"AR68425";"rasskazovo";"RUS64";"Russie";52.66666667;41.88333333;"O";0;0;1926;;;0;0;0;0;7593;894.8198215;33.8;40;43.6;49.1;46.516;45.484
"AR61410";"sasovo";"RUS56";"Russie";54.35;41.91666667;"O";0;0;1926;;;0;0;0;0;5608;59.25730068;20.7;27.2;30.2;35.9;30.736;28.117
"AR57418";"kizel";"RUS52";"Russie";59.05;57.65;"E";0;0;1926;"3B2";;0;0;0;0;2196;492.0823326;60.7;46.3;39.8;36.7;23.841;19.59
"AR57427";"lysjva";"RUS52";"Russie";58.1;57.78333333;"E";0;0;1926;"3A2";;0;0;0;0;3014;1424.534065;73;72.8;75;76.6;71.148;65.931
"AR75442";"miass";"RUS66";"Russie";55;60.1;"E";0;1;1926;"3A1";;0;0;0;0;5151;2405.3382;129.9;168.8;196;217.9;205.564;195.217
"AR76415";"petrzabajk";"RUS80";"Russie";51.26666667;108.8333333;"E";0;0;1926;;;0;0;0;0;9991;1194.557722;29.8;28.3;30.9;28.3;21.164;18.555
"AR10410";"belogorsk";"RUS04";"Russie";50.91666667;128.4833333;"E";0;0;1926;;;41406000000;100;"Nizhne-Zeisky basin";1;10473;585.1067739;48.8;56.9;63.4;73.4;67.422;68.22
"AR94430";"mozhga";"RUS49";"Russie";56.45;52.21666667;"E";0;1;1926;;;76767000000;63;"Kamskaya  coal-bearing territory";1;3953;389.8686071;30;38.9;40.3;46;47.119;47.959
"AR60226501";"krasnysulin";"RUS55";"Russie";47.88333333;40.06666667;"O";0;0;1926;;;82076000000;38;"Donetzky basin";1;15127;2197.180036;39.8;41.7;42.6;43.1;44.187;40.866
"AR60232501";"millerovo";"RUS55";"Russie";48.91666667;40.4;"O";0;0;1926;;;82076000000;38;"Donetzky basin";1;14346;1768.789409;30;34.6;36.2;37.3;38.498;36.493
"AR66238501";"rudnja";"RUS61";"Russie";54.95;31.06666667;"O";0;;1926;;;;;;;;;;10.4;11;11;10.388;10.029
"AR36450";"chapajevsk";"RUS59";"Russie";52.98333333;49.71666667;"O";0;1;1927;"3A2";;0;0;0;0;7260;274.4692292;83.3;86.1;84.6;98;73.912;72.689
"AR25432";"tulun";"RUS17";"Russie";54.56666667;100.5666667;"E";0;0;1927;;;0;0;0;0;6479;263.9109401;41.8;49.4;51.8;52.9;51.848;44.603
"AR60419";"kamenskshah";"RUS55";"Russie";48.31666667;40.26666667;"O";0;0;1927;"3B2";;82076000000;38;"Donetzky basin";1;14346;417.4100463;76.804;87.757;92.377;95.999;98.232;95.306
"AR84401";"gornaltajsk";"RUS03";"Russie";51.95;85.96666667;"E";1;0;1928;"1B5";;0;0;0;0;7792;79676.26192;27.5;34.4;40.3;46.4;53.538;56.928
"AR91405";"karachajesk";"RUS24";"Russie";43.76666667;41.9;"O";0;0;1929;;;0;0;0;0;18126;32482.65085;;14.8;16.9;21.6;22.113;23.848
"AR18425";"urjupinsk";"RUS76";"Russie";50.8;42.01666667;"O";0;0;1929;;;0;0;0;0;10714;419.3504123;31.5;38.2;40.2;43;41.96;41.594
"AR85401";"Elista";"RUS21";"Russie";46.31666667;44.26666667;"O";1;1;1930;"1B5";;0;0;0;0;17233;824.1220661;23.2;49.9;70.3;89.7;104.254;103.728
"AR92430";"Naberejnie Tchelny";"RUS65";"Russie";55.7;52.33333333;"O";0;1;1930;;;76767000000;63;"Kamskaya  coal-bearing territory";1;4548;911.8211678;19.1;37.9;301.4;500.3;509.87;513.242
"AR70234501";"novmoskovsk";"RUS72";"Russie";54.03333333;38.26666667;"O";0;0;1930;;;108000000000;122;"Podmoscovny basin";1;5849;29.61130203;280.915;321.341;333.118;326.161;297.284;279.563
"AR17430";"koljchugino";"RUS75";"Russie";56.3;39.38333333;"O";0;0;1931;;;0;0;0;0;4039;759.0134817;37.9;41.6;43.7;48.006;47.059;45.804
"AR17420";"gushrustaln";"RUS75";"Russie";55.61666667;40.65;"O";0;0;1931;"3A2";;0;0;0;0;4580;375.5875247;54.2;64.5;71.6;76.4;67.121;60.773
"AR91401";"cherkessk";"RUS24";"Russie";44.21666667;42.05;"O";1;1;1931;"1B5";;0;0;0;0;18126;1332.537087;41.7;67.2;90.8;113.1;116.244;121.439
"AR82435";"hasavjurt";"RUS13";"Russie";43.25;46.58333333;"O";0;1;1931;;;0;0;0;0;18599;553.2956306;34.2;54.3;65.1;70.5;121.817;133.929
"AR75438";"Magnitogorsk";"RUS66";"Russie";53.38333333;59.03333333;"E";0;0;1931;"3B1";;0;0;0;0;6715;4652.980515;311.1;364.2;406.1;440.3;418.545;408.401
"AR95401";"Abakan";"RUS27";"Russie";53.71666667;91.41666667;"E";1;0;1931;"1B4";;0;0;0;0;6408;2028.745022;159.275;204.457;270.476;322.231;325.748;323.053
"AR32404";"anzherosud";"RUS25";"Russie";56.08333333;86.03333333;"E";0;0;1931;"3B1";;38041000000;78;"Kuznetsky basin";1;4170;187.0153515;115.6;106.2;105.1;108;86.48;76.669
"AR32431";"Novokouznetsk";"RUS25";"Russie";53.75;87.11666667;"E";0;0;1931;"3B1";;38041000000;78;"Kuznetsky basin";1;6264;1401.672404;895.515;1002.538;1027.967;1103.523;973.626;924.307
"AR19420";"sokol";"RUS77";"Russie";59.46666667;40.11666667;"O";0;0;1932;;;0;0;0;0;1883;741.282467;41.7;48.3;45.3;46.6;43.042;38.454
"AR22238501";"kulebaki";"RUS42";"Russie";55.41666667;42.51666667;"O";0;0;1932;;;0;0;0;0;4711;196.0943239;44.7;46.3;48.1;45.7;39.072;35.762
"AR57408";"Berezniki";"RUS52";"Russie";59.41666667;56.78333333;"E";0;0;1932;"3B1";;0;0;0;0;1919;1009.198777;117.9;155.7;193.3;207.7;179.221;162.206
"AR65460";"krasnoural";"RUS63";"Russie";58.35;60.05;"E";0;1;1932;;;0;0;0;0;2547;707.1506792;39.2;39.7;38.2;35.3;28.961;24.973
"AR65453";"kirovgrad";"RUS63";"Russie";57.43333333;60.06666667;"E";0;1;1932;;;0;0;0;0;3143;2853.068968;22.7;23;24;25.6;23.197;21.006
"AR41408";"volhov";"RUS35";"Russie";59.91666667;32.35;"O";0;0;1933;;;0;0;0;0;1502;502.2431614;36.6;47;49.7;50.3;46.596;47.344
"AR57440";"chusovoj";"RUS52";"Russie";58.28333333;57.81666667;"E";0;0;1933;"3A2";;0;0;0;0;2608;1393.138059;60.7;58.2;56.4;57.9;51.615;46.74
"AR65480";"pervouralsk";"RUS63";"Russie";56.91666667;59.95;"E";0;1;1933;"3A1";;0;0;0;0;3494;3213.13272;145.3;175.7;192.1;208;194.944;186.445
"AR75415";"karabash";"RUS66";"Russie";55.48333333;60.2;"E";0;1;1933;;;0;0;0;0;4669;2444.301936;24.9;20;17.6;17;15.942;13.151
"AR65409";"asbest";"RUS63";"Russie";57;61.46666667;"E";0;1;1933;"3C";;0;0;0;0;3367;380.9060674;60.1;91.281;102.933;114.302;104.417;94.96
"AR75403";"asha";"RUS66";"Russie";55;57.25;"E";0;0;1933;;;26504000000;193;"Yuzhno-Uralsky basin";1;5009;248.3324556;36.5;37.4;36.1;38.6;33.926;31.916
"AR22224501";"vyksa";"RUS42";"Russie";55.31666667;42.18333333;"O";0;0;1934;;;0;0;0;0;4781;2478.353056;40.3;46.4;53.7;61.1;61.657;56.196
"AR75434";"kyshtym";"RUS66";"Russie";55.7;60.55;"E";0;1;1934;;;0;0;0;0;4521;120.7178879;34.3;36.1;39.8;42.9;41.929;38.95
"AR11111";"Narian-Mar";"RUS05";"Russie";67.63333333;53;"O";0;1;1935;;;0;0;0;0;138;327615.852;13.2;16.9;23.4;20.2;18.611;21.296
"AR94410";"votkinsk";"RUS49";"Russie";57.05;54;"E";0;1;1935;"3A2";;0;0;0;0;3312;1690.258739;59.7;74.1;89.8;103.5;99.441;100.034
"AR65436";"kamenskural";"RUS63";"Russie";56.4;61.93333333;"E";0;1;1935;"3A1";;0;0;0;0;3941;2004.97545;141;169.3;187.4;207.8;186.153;174.71
"AR46257501";"shatura";"RUS40";"Russie";55.56666667;39.53333333;"O";0;0;1936;;;0;0;0;0;4605;453.8793749;19.6;24.5;29.4;31.6;30.393;32.905
"AR18428";"frolovo";"RUS76";"Russie";49.76666667;43.65;"O";0;1;1936;;;0;0;0;0;12689;360.8675631;26.4;33.4;39.5;41.7;41.132;39.489
"AR25234501";"sljudjanka";"RUS17";"Russie";51.66666667;103.7;"E";0;0;1936;;;0;0;0;0;9473;916.0571734;21.4;20.6;19.8;19.9;19.118;18.542
"AR29405";"kirovk";"RUS22";"Russie";54.08333333;34.3;"O";0;0;1936;;;108000000000;122;"Podmoscovny basin";1;5832;875.9817901;16.6;29.4;33.5;36;38.893;31.888
"AR49250501";"chudovo";"RUS43";"Russie";59.11666667;31.66666667;"O";0;0;1937;;;0;0;0;0;2226;134.8523981;11.4;12.5;14.5;18;17.434;15.401
"AR47415";"monchegorsk";"RUS41";"Russie";67.93333333;32.9;"O";0;0;1937;;;0;0;0;0;34;974.0215001;45.5;46;51.4;68.7;52.242;45.381
"AR86215501";"kondopoga";"RUS12";"Russie";62.2;34.26666667;"O";0;0;1937;;;0;0;0;0;641;206.7521452;16.1;27.9;35.2;36.4;34.863;32.978
"AR28430";"konakovo";"RUS74";"Russie";56.7;36.76666667;"O";0;0;1937;;;0;0;0;0;3649;855.377581;13.7;29.5;36.8;42.5;42.335;41.303
"AR46243513";"likinodulev";"RUS40";"Russie";55.7;38.95;"O";0;0;1937;;;0;0;0;0;4530;560.6986265;24.6;27.5;31.8;34.2;31.44;31.331
"AR20221501";"liski";"RUS78";"Russie";50.98333333;39.51666667;"O";0;0;1937;;;0;0;0;0;10356;338.2326083;37.6;48.7;52.4;54;55.893;55.864
"AR83410";"prohladnyj";"RUS19";"Russie";43.75;44.03333333;"O";0;1;1937;;;0;0;0;0;18307;694.6975351;28.8;40.1;47.6;57.1;61.772;59.595
"AR97413";"shumerlja";"RUS69";"Russie";55.5;46.41666667;"O";0;0;1937;;;0;0;0;0;4673;1579.521163;30.2;33.8;37.3;42;36.239;31.724
"AR33236501";"sovetskkr";"RUS28";"Russie";57.58333333;48.95;"O";0;0;1937;;;0;0;0;0;2616;75219.65559;14.6;17;18.4;19.4;18.167;16.592
"AR75424";"katavivansk";"RUS66";"Russie";54.75;58.2;"E";0;0;1937;;;0;0;0;0;5207;811.4843177;20.6;20.2;22.8;25;20.162;17.64
"AR75448";"satka";"RUS66";"Russie";55.05;59.05;"E";0;1;1937;;;0;0;0;0;5079;1766.956149;43.1;44.1;46.2;50.7;49.686;45.184
"AR65496";"tavda";"RUS63";"Russie";58.05;65.26666667;"E";0;0;1937;;;0;0;0;0;2735;1015.594996;48;47.4;46.4;45.7;40.686;35.415
"AR99401";"birobidgan";"RUS09";"Russie";48.78333333;132.9333333;"E";1;1;1937;"1B5";;0;0;0;0;13695;152.4589765;40.7;55.7;68.6;83.7;77.25;75.419
"AR47408";"kandalaksha";"RUS41";"Russie";67.16666667;32.41666667;"O";0;0;1938;;;0;0;0;0;78;2735.579256;38.2;42.7;45.4;54.1;40.564;35.659
"AR28234501";"kuvshinovo";"RUS74";"Russie";57.03333333;34.16666667;"O";0;0;1938;;;0;0;0;0;3390;1224.441447;13.5;13;13.5;12.4;11.276;10.008
"AR15216501";"djatjkovo";"RUS11";"Russie";53.6;34.33333333;"O";0;0;1938;;;0;0;0;0;6420;933.1295018;19.4;26.8;31.7;34.4;33.6;29.438
"AR86224501";"medvezhgors";"RUS12";"Russie";62.91666667;34.45;"O";0;0;1938;;;0;0;0;0;404;360.1614996;15.8;17.5;20.3;20.4;17.283;15.536
"AR86204501";"belomorsk";"RUS12";"Russie";64.51666667;34.76666667;"O";0;0;1938;;;0;0;0;0;188;1103.85023;14.8;16.6;18.1;18.9;13.103;11.217
"AR46252501";"solnecgorsk";"RUS40";"Russie";56.18333333;36.98333333;"O";0;0;1938;;;0;0;0;0;4184;1171.019647;24.2;33.5;48;55.6;58.374;52.996
"AR46206501";"voskresensk";"RUS40";"Russie";55.31666667;38.68333333;"O";0;0;1938;;;0;0;0;0;4787;649.9178563;44.8;74.059;86.751;94.631;92.208;91.301
"AR11430";"severodvinsk";"RUS05";"Russie";64.56666667;39.81666667;"O";0;0;1938;"3A1";;0;0;0;0;185;3655.288293;78.7;144.7;197.2;248.7;201.551;192.265
"AR78212501";"gavrilovjam";"RUS79";"Russie";57.3;39.85;"O";0;0;1938;;;0;0;0;0;3185;716.1535416;21.3;20.8;20.7;21.4;19.105;17.792
"AR24220506";"privolzhsk";"RUS18";"Russie";57.38333333;41.28333333;"O";0;0;1938;;;0;0;0;0;3160;704.4794677;18.7;19.8;20.4;20.7;18.385;16.749
"AR90205501";"alagir";"RUS48";"Russie";43.03333333;44.21666667;"O";0;0;1938;;;0;0;0;0;18735;972.0028743;15.2;18.2;19;21.1;21.496;20.949
"AR34430";"sharja";"RUS30";"Russie";58.36666667;45.5;"O";0;0;1938;;;0;0;0;0;2541;63.78570154;22.3;39.227;39.086;42.129;38.476;35.891
"AR57141";"kudymkar";"RUS52";"Russie";59.01666667;54.66666667;"E";0;1;1938;;;0;0;0;0;2030;74530.15701;21.8;26.4;28.4;33.5;31.914;28.984
"AR80404";"bajmak";"RUS07";"Russie";52.58333333;58.31666667;"E";0;0;1938;;;0;0;0;0;7552;19587.5878;11.3;12.5;13.5;16;17.223;17.71
"AR65229501";"novaljalja";"RUS63";"Russie";59.05;60.6;"E";0;1;1938;;;0;0;0;0;2296;797.5730097;17.8;17;17;15.7;14.584;12.731
"AR71171";"Salekhard";"RUS70";"Russie";66.53333333;66.63333333;"E";1;0;1938;;;0;0;0;0;101;994.2013656;16.6;21.9;24.9;32.3;36.827;42.494
"AR25428";"tajshet";"RUS17";"Russie";55.93333333;98.01666667;"E";0;0;1938;;;0;0;0;0;4301;925.6064114;33.5;34.2;38.2;42.4;38.535;35.481
"AR76405";"balej";"RUS80";"Russie";51.58333333;116.6333333;"E";0;0;1938;;;0;0;0;0;8957;31648.21473;28.8;27.2;25.9;23.9;14.797;12.536
"AR64425";"oha";"RUS58";"Russie";53.58333333;142.9333333;"E";0;1;1938;;;0;0;0;0;11506;307984.6743;27.6;30.9;32.9;36.1;27.963;23.007
"AR65406";"artjomvskij";"RUS63";"Russie";57.36666667;61.86666667;"E";0;1;1938;;;1564200000;73;"Kizelovsky basin";1;3178;171.7024503;34.8;37.7;39.2;41.2;34.98;33.136
"AR32413";"gurjevsk";"RUS25";"Russie";54.28333333;85.93333333;"E";0;0;1938;;;38041000000;78;"Kuznetsky basin";1;5613;96.93490955;30.4;27.2;25.6;28.2;27.381;24.816
"AR92201501";"agryz";"RUS65";"Russie";56.51666667;53;"O";0;1;1938;;;76767000000;63;"Kamskaya  coal-bearing territory";1;3806;113.1508138;20.3;19.3;20.1;19.7;18.62;19.299
"AR29410";"ljudinovo";"RUS22";"Russie";53.86666667;34.45;"O";0;0;1938;;;108000000000;122;"Podmoscovny basin";1;6135;128.9705791;26.4;33.9;39.8;43.7;41.829;40.55
"AR29208501";"kondrovo";"RUS22";"Russie";54.8;35.93333333;"O";0;0;1938;;;108000000000;122;"Podmoscovny basin";1;5173;87.2200058;13.1;15.7;15.1;17.2;17.177;16.672
"AR46253501";"stupino";"RUS40";"Russie";54.9;38.06666667;"O";0;0;1938;;;108000000000;122;"Podmoscovny basin";1;5169;130.4403894;71.887;98.8;113.8;118.6;104.022;108.822
"AR14450";"shebekino";"RUS08";"Russie";50.41666667;36.9;"O";0;0;1938;;;135000000000;37;"Dneprovsko-Donetzkaya  coal-bearing territory";1;11523;1187.137836;13.9;26;39.5;44.6;45.119;44.277
"AR69405";"kolpashevo";"RUS71";"Russie";58.31666667;82.91666667;"E";0;0;1938;;;816000000000;107;"Ob`-Irtyshskaya coal-bearing territory";1;3133;130138.5239;22.6;24.9;28.6;31.3;28.441;24.126
"AR47525";"poljarnyj";"RUS41";"Russie";69.2;33.45;"O";0;0;1939;;;0;0;0;0;13;12272.09596;11.4;15.3;20;27.6;18.552;17.304
"AR46204501";"balashiha";"RUS40";"Russie";55.8;37.95;"O";0;0;1939;"3A2";;0;0;0;0;4431;1282.839244;94.744;118.467;137.817;151.591;171.157;215.353
"AR17440";"sobinka";"RUS75";"Russie";55.98333333;40.01666667;"O";0;0;1939;;;0;0;0;0;4308;572.5319274;20.5;22.9;23.6;23.7;21.054;19.482
"AR11244501";"njandoma";"RUS05";"Russie";61.66666667;40.2;"O";0;0;1939;;;0;0;0;0;693;334.6471508;21.7;23.4;22;24.8;22.619;22.354
"AR26405";"malgobek";"RUS16";"Russie";43.51666667;44.58333333;"O";0;1;1939;;;0;0;0;0;18436;1708.439185;13.9;20.5;20.6;20.4;41.876;31.076
"AR53415";"mednogorsk";"RUS47";"Russie";51.4;57.58333333;"E";0;0;1939;;;0;0;0;0;9573;344.085164;36.8;38;34.9;34.1;31.369;27.29
"AR98203501";"aldan";"RUS15";"Russie";58.6;125.3833333;"E";0;0;1939;;;0;0;0;0;4799;211943.2531;12.4;17.7;20.2;27.1;24.715;21.277
"AR44401";"Magadan";"RUS37";"Russie";59.56666667;150.8;"E";1;0;1939;"1B4";;0;0;0;0;429;339230.4974;62.2;92.1;121.3;151.7;99.399;95.925
"AR60430";"novoshahtsk";"RUS55";"Russie";47.76666667;39.91666667;"O";0;0;1939;"3B1";;82076000000;38;"Donetzky basin";1;15294;1682.326217;118.009;117.242;119.12;121.842;116.017;111.087
"AR41215514";"svetogorsk";"RUS35";"Russie";61.11666667;28.85;"O";0;0;1940;;;0;0;0;0;926;1381.82219;10.4;11.758;13;15.6;15.698;15.973
"AR41448";"priozersk";"RUS35";"Russie";61.03333333;30.11666667;"O";0;0;1940;;;0;0;0;0;1175;1461.906391;13.9;16.7;19.1;20.6;20.506;18.929
"AR86233501";"pitkjaranta";"RUS12";"Russie";61.56666667;31.48333333;"O";0;0;1940;;;0;0;0;0;723;675.8497735;;10.3;13.8;14.4;13.347;11.484
"AR15258501";"unecha";"RUS11";"Russie";52.85;32.68333333;"O";0;0;1940;;;0;0;0;0;7383;148.6870746;16.5;21.7;26.4;28.6;29.039;26.196
"AR46221503";"vysokovsk";"RUS40";"Russie";56.31666667;36.55;"O";0;0;1940;;;0;0;0;0;3969;1651.467427;11.1;12.2;11.4;11.6;10.95;10.642
"AR46218503";"dedovsk";"RUS40";"Russie";55.86666667;37.13333333;"O";0;0;1940;;;0;0;0;0;4397;2078.620909;19.5;25.3;29.6;30.7;27.662;29.28
"AR46208505";"jahroma";"RUS40";"Russie";56.28333333;37.48333333;"O";0;0;1940;;;0;0;0;0;4110;1303.789482;16.3;17.2;16.7;17.5;13.361;13.248
"AR46215503";"krasnozavsk";"RUS40";"Russie";56.45;38.21666667;"O";0;0;1940;;;0;0;0;0;3879;1204.323513;19.5;25.4;27.4;29.8;13.549;13.432
"AR46243504";"drezna";"RUS40";"Russie";55.75;38.83333333;"O";0;0;1940;;;0;0;0;0;4474;3598.279419;11.5;12.5;12.3;13;11.665;11.815
"AR46465";"roshalj";"RUS40";"Russie";55.66666667;39.88333333;"O";0;0;1940;;;0;0;0;0;4505;2538.230168;21.8;25.3;25.3;24;22.407;21.265
"AR75406";"verhufalej";"RUS66";"Russie";56.05;60.23333333;"E";0;1;1940;;;0;0;0;0;4302;805.0841178;36.9;37.9;38.6;40.1;34.36;30.504
"AR75445";"plast";"RUS66";"Russie";54.36666667;60.81666667;"E";0;1;1940;;;0;0;0;0;5430;28640.98966;25.9;22.7;19.3;18.9;17.422;17.344
"AR96404";"gudermes";"RUS67";"Russie";43.35;46.1;"O";0;1;1941;;;0;0;0;0;18565;18.72036539;18.6;32.4;34;38.1;33.756;45.643
"AR80417";"blagovsk1";"RUS07";"Russie";55.03333333;55.98333333;"E";0;1;1941;;;0;0;0;0;5156;6887.747145;12.9;14.8;21.1;27.7;32.989;34.246
"AR57415";"gubaha";"RUS52";"Russie";58.86666667;57.58333333;"E";0;0;1941;;;0;0;0;0;2305;766.0793444;47.1;62.002;52.758;53.073;42.115;32.905
"AR60234501";"morozovsk";"RUS55";"Russie";48.35;41.83333333;"O";0;0;1941;;;135000000000;37;"Dneprovsko-Donetzkaya  coal-bearing territory";1;14573;988.8992546;27;27;27.2;27;29.222;27.644
"AR57212501";"vereschagno";"RUS52";"Russie";58.06666667;54.65;"E";0;1;1942;;;0;0;0;0;2714;119.2127548;22.9;23.6;22.3;24.1;22.832;22.161
"AR80419";"davlekanovo";"RUS07";"Russie";54.21666667;55.03333333;"E";0;1;1942;;;0;0;0;0;5999;944.3975656;17.1;20.1;20.7;21.9;23.86;24.04
"AR57234501";"nytva";"RUS52";"Russie";57.93333333;55.33333333;"E";0;1;1942;;;0;0;0;0;2809;524.7164044;19.2;17.5;16.9;21.9;20.66;19.042
"AR57226501";"krasnovishk";"RUS52";"Russie";60.4;57.06666667;"E";0;0;1942;;;0;0;0;0;1291;1199.336584;15.2;14.9;15.9;18.7;18.26;16.098
"AR75209505";"sim";"RUS66";"Russie";54.98333333;57.68333333;"E";0;0;1942;;;0;0;0;0;5017;1104.802459;13.9;18.9;21.3;20.2;16.377;14.465
"AR75455";"ustjkatav";"RUS66";"Russie";54.93333333;58.16666667;"E";0;0;1942;;;0;0;0;0;5058;1664.719562;23.1;23.4;24.5;31.2;25.898;23.586
"AR65482";"polevskoj";"RUS63";"Russie";56.45;60.18333333;"E";0;1;1942;;;0;0;0;0;3870;336.0643652;47.1;57.6;64.1;70.6;66.761;64.191
"AR75421";"kasli";"RUS66";"Russie";55.88333333;60.75;"E";0;1;1942;;;0;0;0;0;4318;856.4314527;21.8;20.7;21.2;21.5;19.091;16.998
"AR65249501";"talica";"RUS63";"Russie";57.01666667;63.71666667;"E";0;0;1942;;;0;0;0;0;3356;143.9701589;17.2;18.3;18.2;19.9;18.86;16.22
"AR33404";"vjatskipol";"RUS28";"Russie";56.21666667;51.06666667;"O";0;0;1942;;;76767000000;63;"Kamskaya  coal-bearing territory";1;4344;3608.352482;25.7;32.7;37.6;44.5;40.282;35.159
"AR86245501";"segezha";"RUS12";"Russie";63.73333333;34.31666667;"O";0;0;1943;;;0;0;0;0;303;1115.756108;19.7;28.8;36.4;38.2;34.214;29.66
"AR22258501";"shahunja";"RUS42";"Russie";57.66666667;46.61666667;"O";0;0;1943;;;0;0;0;0;3046;444.4644053;21.3;20.1;21;22.3;21.724;20.926
"AR87425";"Oukhta";"RUS29";"Russie";63.56666667;53.7;"O";0;1;1943;;;0;0;0;0;329;1263.559779;52;87.6;114.5;140.9;132.927;127.451
"AR57416";"dobrjanka";"RUS52";"Russie";58.46666667;56.41666667;"E";0;0;1943;;;0;0;0;0;2497;1043.635809;15.5;18.3;22.2;35.3;36.436;33.685
"AR75209503";"minjar";"RUS66";"Russie";55.06666667;57.55;"E";0;0;1943;;;0;0;0;0;5009;198.7865454;15.4;13.5;12.5;12.9;11.032;10.195
"AR75229516";"jurjuzanj";"RUS66";"Russie";54.86666667;58.43333333;"E";0;1;1943;;;0;0;0;0;5157;833.9480436;17.3;17.5;18.1;18.3;14.158;12.568
"AR65228501";"nizhnsergi";"RUS63";"Russie";56.66666667;59.3;"E";0;1;1943;;;0;0;0;0;4230;2814.107011;14.2;14.5;15.5;14.9;12.567;10.347
"AR75238501";"kusa";"RUS66";"Russie";55.33333333;59.43333333;"E";0;1;1943;;;0;0;0;0;4767;1483.854448;21.8;21.2;21.9;22.6;20.316;18.792
"AR65428";"ivdel";"RUS63";"Russie";60.68333333;60.43333333;"E";0;0;1943;;;0;0;0;0;1156;692.1471809;22;15.3;15.9;19;19.324;17.764
"AR65486";"rezh";"RUS63";"Russie";57.36666667;61.4;"E";0;1;1943;;;0;0;0;0;3178;308.8103933;21.3;29.9;37.9;43.4;39.881;38.213
"AR87410";"Vorkouta";"RUS29";"Russie";67.5;64.03333333;"O";0;0;1943;"3B2";;98356408;119;"Pechorsky basin";1;61;749.2181014;70.875;116.801;135.86;160.897;116.045;91.631
"AR50206501";"bolotnoje";"RUS44";"Russie";55.66666667;84.4;"E";0;0;1943;;;816000000000;107;"Ob`-Irtyshskaya coal-bearing territory";1;4775;1484.44774;26.8;21.9;20.8;20;18.17;16.57
"AR33222501";"luza";"RUS28";"Russie";60.61666667;47.28333333;"O";0;0;1944;;;0;0;0;0;1219;414.9084871;13.2;14;14;13.7;12.311;11.262
"AR33214501";"zujevka";"RUS28";"Russie";58.4;51.13333333;"O";0;0;1944;;;0;0;0;0;2613;647.432596;19.9;17;16.2;16.1;12.6;11.198
"AR75244501";"njazpetrvsk";"RUS66";"Russie";56.05;59.6;"E";0;1;1944;;;0;0;0;0;4229;911.2198867;22.5;18.6;17.7;17.1;13.405;12.452
"AR65490";"severuralsk";"RUS63";"Russie";60.15;59.93333333;"E";0;0;1944;;;0;0;0;0;1355;333.1135319;25.9;29.9;32.5;36.1;34.673;29.279
"AR65456";"krasnotursk";"RUS63";"Russie";59.76666667;60.2;"E";0;1;1944;"3B2";;0;0;0;0;1640;541.1390282;210;197.3;199.2;208.5;195.898;188.2
"AR75418";"kartaly";"RUS66";"Russie";53.05;60.65;"E";0;1;1944;;;0;0;0;0;7183;440.8553311;33.9;42.8;38.9;37.1;29.908;29.136
"AR37212501";"katajsk";"RUS31";"Russie";56.3;62.56666667;"E";0;1;1944;;;0;0;0;0;4165;1247.812136;11.8;14.3;15.5;16.8;15.836;14.017
"AR37242501";"shumiha";"RUS31";"Russie";55.23333333;63.28333333;"E";0;1;1944;;;0;0;0;0;4840;263.3717185;19.4;20.6;21.3;22;19.083;17.821
"AR37226501";"petuhovo";"RUS31";"Russie";55.06666667;67.88333333;"E";0;0;1944;;;0;0;0;0;4996;1199.323994;13;12.1;11.8;14.6;12.661;11.291
"AR81221501";"zakamensk";"RUS10";"Russie";50.38333333;103.2833333;"E";0;0;1944;;;0;0;0;0;9473;132269.9904;13.8;12.7;13.2;15.6;12.709;11.53
"AR10420";"rajchihinsk";"RUS04";"Russie";49.8;129.4;"E";0;0;1944;;;41406000000;100;"Nizhne-Zeisky basin";1;12631;2000.945398;27.5;25.2;28.1;27.9;24.498;20.499
"AR50232501";"kupino";"RUS44";"Russie";54.36666667;77.3;"E";0;0;1944;;;816000000000;107;"Ob`-Irtyshskaya coal-bearing territory";1;5460;813.8455921;23.2;20.8;19.3;19.5;16.878;14.893
"AR20215501";"kalach";"RUS78";"Russie";50.43333333;41;"O";0;0;1945;;;0;0;0;0;11374;237.2122871;16.9;18.5;20.2;23.2;20.95;20.046
"AR53427";"sorochinsk";"RUS47";"Russie";52.43333333;53.15;"E";0;1;1945;;;0;0;0;0;8468;1705.095269;19.4;23.2;24.7;26.7;30.136;29.26
"AR94220501";"kambarka";"RUS49";"Russie";56.26666667;54.2;"E";0;1;1945;;;0;0;0;0;4054;1192.920486;13.4;14.1;13;13.3;12.636;11.028
"AR37244501";"schuchje";"RUS31";"Russie";55.21666667;62.76666667;"E";0;1;1945;;;0;0;0;0;4840;1559.651006;10.3;10.8;10.4;11.1;10.602;10.971
"AR50252501";"toguchin";"RUS44";"Russie";55.23333333;84.38333333;"E";0;0;1945;;;0;0;0;0;5282;92.20592466;19.6;20.6;22.6;23.2;22.179;21.9
"AR93254501";"shagonar";"RUS73";"Russie";51.53333333;92.9;"E";0;0;1945;;;0;0;0;0;7406;176401.5883;;;;10.1;11.008;10.958
"AR52405";"isiljkul";"RUS45";"Russie";54.9;71.26666667;"E";0;0;1945;;;816000000000;107;"Ob`-Irtyshskaya coal-bearing territory";1;5060;2429.761821;25.5;26;25.7;26.4;26.549;24.481
"AR27405";"baltijsk";"RUS20";"Russie";54.65;19.91666667;"O";0;1;1946;;;0;0;0;0;5247;10494.968;17.4;20.3;23.6;27.1;33.252;32.67
"AR27420";"svetlogorsk";"RUS20";"Russie";54.93333333;20.15;"O";0;1;1946;;;0;0;0;0;5205;317.9646249;;;10;11.9;10.95;10.775
"AR27417";"pionerskij";"RUS20";"Russie";54.95;20.21666667;"O";0;1;1946;;;0;0;0;0;5205;585.246871;;;10.1;11.6;11.816;11.017
"AR27215501";"zelengradsk";"RUS20";"Russie";54.95;20.48333333;"O";0;1;1946;;;0;0;0;0;5047;390.5675268;;;;10.8;12.509;13.015
"AR27401";"Kaliningrad";"RUS20";"Russie";54.71666667;20.5;"O";1;0;1946;"1B2";;0;0;0;0;5215;608.7509754;206;300.6;360.7;409.2;440.916;443.924
"AR27206501";"gvardejsk";"RUS20";"Russie";54.65;21.06666667;"O";0;1;1946;;;0;0;0;0;5297;2025.299245;;10.5;10.8;11.9;14.572;13.888
"AR27239501";"chernahovsk";"RUS20";"Russie";54.63333333;21.81666667;"O";0;1;1946;;;0;0;0;0;5278;626.3718239;29.1;33.4;35.6;39.6;44.323;40.464
"AR27430";"sovetskkl";"RUS20";"Russie";55.08333333;21.88333333;"O";0;1;1946;;;0;0;0;0;4958;207.7294959;31.9;38.5;40.2;41.9;43.224;41.709
"AR27221501";"neman";"RUS20";"Russie";55.03333333;22.03333333;"O";0;1;1946;;;0;0;0;0;5276;1426.014358;;11.6;12.5;13.8;12.714;11.794
"AR46443";"kranoarmskm";"RUS40";"Russie";56.1;38.13333333;"O";0;0;1946;;;0;0;0;0;4299;12802.88943;18.2;22.4;26;27.5;26.051;26.294
"AR46245505";"elektrgorsk";"RUS40";"Russie";55.88333333;38.78333333;"O";0;0;1946;;;0;0;0;0;4369;493.2600791;11.5;13;15.9;18.4;20.353;22.472
"AR73210501";"inza";"RUS50";"Russie";53.85;46.35;"O";0;0;1946;;;0;0;0;0;6077;551.9238108;18.6;19.1;20.3;23.5;20.288;18.547
"AR36440";"toljatti";"RUS59";"Russie";53.51666667;49.41666667;"O";0;0;1946;"3A1";;0;0;0;0;6528;2257.956974;121.106;309.002;554.137;685.424;763.714;775.074
"AR80435";"oktjabrskij";"RUS07";"Russie";54.48333333;53.48333333;"E";0;1;1946;"3B2";;0;0;0;0;5398;1071.933505;64.7;77.1;88;104.7;108.647;109.379
"AR65241501";"sysert";"RUS63";"Russie";56.5;60.81666667;"E";0;1;1946;;;0;0;0;0;3786;2366.464711;19.6;19.2;21.4;22.5;22.152;20.485
"AR64435";"uglegorsk";"RUS58";"Russie";49.06666667;142.0333333;"E";0;1;1946;;;0;0;0;0;13323;133237.8582;17.9;17.9;18.4;18.4;13.396;10.382
"AR64440";"holmsk";"RUS58";"Russie";47.03333333;142.0333333;"E";0;1;1946;;;0;0;0;0;13521;240156.7313;31.5;37.4;45.2;51.4;35.141;30.936
"AR64401";"Ioujno-Sakhalinsk";"RUS58";"Russie";46.95;142.7333333;"E";1;1;1946;"1B4";;0;0;0;0;13521;282502.1953;89.891;111.911;147.909;159.3;175.085;181.727
"AR64415";"korsakov";"RUS58";"Russie";46.63333333;142.7666667;"E";0;1;1946;;;0;0;0;0;13521;309213.6525;32.9;38.2;42.3;45.1;36.652;33.518
"AR64410";"dolinsk";"RUS58";"Russie";47.31666667;142.8;"E";0;1;1946;;;0;0;0;0;13521;259748.9085;14.8;13.7;14.8;15.7;12.555;12.2
"AR64430";"poronajsk";"RUS58";"Russie";49.21666667;143.1;"E";0;1;1946;;;0;0;0;0;13323;215577.6842;21.6;23.6;24.7;26;17.954;16.099
"AR64420";"nevelsk";"RUS58";"Russie";46.65;141.8666667;"E";0;1;1946;;;1141300000;135;"Sahalinsky basin";1;13521;267224.8381;19.9;20.7;23.5;24.2;18.639;11.667
"AR36427";"pohvistnevo";"RUS59";"Russie";53.65;52.13333333;"O";0;1;1947;;;0;0;0;0;6856;182.7269751;23.1;26.1;25.7;27.8;27.973;28.181
"AR65416";"bogdanvich";"RUS63";"Russie";56.78333333;62.05;"E";0;1;1947;;;0;0;0;0;3578;144.46199;42.8;50.9;62.8;72.6;69.263;65.225
"AR37208501";"dalmatovo";"RUS31";"Russie";56.26666667;62.91666667;"E";0;1;1947;;;0;0;0;0;4165;3586.824062;11;12.6;15.3;17.5;14.972;13.913
"AR50259501";"chulym";"RUS44";"Russie";55.1;80.96666667;"E";0;0;1947;;;816000000000;107;"Ob`-Irtyshskaya coal-bearing territory";1;5016;901.4487894;18.2;14.3;13;13.7;12.275;11.568
"AR18420";"mihajlovka";"RUS76";"Russie";50.06666667;43.23333333;"O";0;1;1948;;;0;0;0;0;12529;1287.704663;35;49.8;58.2;58.3;60.034;59.153
"AR41451";"slancy";"RUS35";"Russie";59.11666667;28.08333333;"O";0;0;1949;;;0;0;0;0;2141;1093.784537;35.3;41.1;42.3;43.1;37.371;33.587
"AR70238501";"plavsk";"RUS72";"Russie";53.7;37.3;"O";0;0;1949;;;0;0;0;0;6321;270.5452684;12.4;13;14.5;16.6;16.75;16.248
"AR82415";"izberbash";"RUS13";"Russie";42.56666667;47.86666667;"O";0;1;1949;;;0;0;0;0;19276;2160.255094;11.2;17.3;21.3;28.1;39.365;56.301
"AR87420";"Petchora";"RUS29";"Russie";65.13333333;57.21666667;"O";0;1;1949;;;0;0;0;0;143;1159.306992;30.6;37.8;56.4;64.7;48.7;43.458
"AR57412";"gremjachnsk";"RUS52";"Russie";58.56666667;57.85;"E";0;0;1949;;;0;0;0;0;2458;339.8501154;38;30;21.6;21;13.237;10.75
"AR65478";"nizhntura";"RUS63";"Russie";58.61666667;59.85;"E";0;1;1949;;;0;0;0;0;2423;1624.177327;20.6;19.6;22.9;26.3;24.247;21.997
"AR32449";"jurga";"RUS25";"Russie";55.73333333;84.9;"E";0;0;1949;;;0;0;0;0;4486;176.8419911;46.6;62.1;78.3;93.2;85.555;81.536
"AR25445505";"svirsk";"RUS17";"Russie";53.08333333;103.3333333;"E";0;0;1949;;;62239300;54;"Irkutsky basin";1;7140;582.2536754;21.2;20.5;21.8;19.2;15.5;13.649
"AR28435";"nelidovo";"RUS74";"Russie";56.21666667;32.78333333;"O";0;0;1949;;;108000000000;122;"Podmoscovny basin";1;4091;53.85260969;26.5;29.8;29;30;26.154;22.886
"AR41403";"boksitogors";"RUS35";"Russie";59.46666667;33.85;"O";0;0;1950;;;0;0;0;0;1887;437.7841541;20.4;22.2;23.2;21.8;18.128;16.593
"AR90235501";"beslan";"RUS48";"Russie";43.18333333;44.53333333;"O";0;1;1950;;;0;0;0;0;18639;591.6135084;19.4;26.9;29.9;32.5;35.55;36.724
"AR57244501";"ocher";"RUS52";"Russie";57.88333333;54.71666667;"E";0;1;1950;;;0;0;0;0;2849;727.5009583;14;15.4;14.8;16.4;15.563;14.239
"AR71131";"Khanti-Mansiisk";"RUS70";"Russie";61;69.01666667;"E";1;1;1950;;;0;0;0;0;2597;154746.7868;20.7;24.8;28.3;34.5;53.953;79.41
"AR76226501";"mogocha";"RUS80";"Russie";53.73333333;119.7666667;"E";0;0;1950;;;0;0;0;0;7781;310.4795113;14.7;17.9;17.8;17.8;13.282;13.228
"AR76407";"borzja";"RUS80";"Russie";50.38333333;116.5333333;"E";0;0;1950;;;1853400000;43;"Zabaikal`skaya coal-bearing territory";1;11455;412.7759286;23.7;27.8;35.8;36.4;31.46;31.376
"AR10440";"shimanovsk";"RUS04";"Russie";52;127.6666667;"E";0;0;1950;;;41406000000;100;"Nizhne-Zeisky basin";1;9759;85.69533898;17.9;16.9;25.6;26.3;22.267;19.815
"AR46259503";"losinopetrk";"RUS40";"Russie";55.86666667;38.2;"O";0;0;1951;;;0;0;0;0;4356;2574.80214;16.7;22;22;22.9;22.324;22.55
"AR60218501";"zernograd";"RUS55";"Russie";46.85;40.3;"O";0;0;1951;;;0;0;0;0;16430;774.4104062;15.6;20.3;25.3;26.1;28.84;26.85
"AR17225501";"kameshkovo";"RUS75";"Russie";56.35;41;"O";0;0;1951;;;0;0;0;0;4019;277.9204339;11.8;12.9;14.1;15.1;14.161;13.113
"AR18216501";"kalachnadon";"RUS76";"Russie";48.68333333;43.53333333;"O";0;1;1951;;;0;0;0;0;13835;253.2640433;16.7;20.8;22.8;23;26.882;26.892
"AR22243501";"pervomajsk";"RUS42";"Russie";54.86666667;43.8;"O";0;0;1951;;;0;0;0;0;5096;1165.951298;13.7;15.1;16.4;16.4;15.094;14.567
"AR56229501";"kamenka";"RUS51";"Russie";53.18333333;44.05;"O";0;0;1951;;;0;0;0;0;7072;362.7141083;25.2;30.1;35.3;40.1;40.712;39.579
"AR57405";"aleksandrsk";"RUS52";"Russie";59.16666667;57.58333333;"E";0;0;1951;;;0;0;0;0;2111;1493.497344;19.1;18.3;20;20.1;16.231;14.502
"AR75249503";"bakal";"RUS66";"Russie";54.93333333;58.8;"E";0;1;1951;;;0;0;0;0;5079;452.0558181;29.4;27.4;26.8;24.1;22.314;20.953
"AR76247501";"hilok";"RUS80";"Russie";51.35;110.45;"E";0;0;1951;;;0;0;0;0;9991;1731.16294;15.9;12.8;14.2;13.9;11.152;11.53
"AR76254501";"shilka";"RUS80";"Russie";51.85;116.0333333;"E";0;0;1951;;;0;0;0;0;8957;40.15536387;16.8;16.1;17.2;18.1;14.748;13.947
"AR25405";"angarsk";"RUS17";"Russie";52.56666667;103.9166667;"E";0;0;1951;"3A1";;62239300;54;"Irkutsky basin";1;8083;1419.174075;140.075;209.006;244.079;270.649;251.176;233.765
"AR75409";"emanzhelnsk";"RUS66";"Russie";54.75;61.31666667;"E";0;1;1951;;;7458700000;180;"Chelyabinsky basin";1;5200;117.4905975;33.6;33.4;31;31.2;30.202;30.218
"AR60417";"doneck";"RUS55";"Russie";48.33333333;39.93333333;"O";0;0;1951;;;82076000000;38;"Donetzky basin";1;14332;1363.197505;42.4;44.085;50.086;53.933;53.258;50.085
"AR46243508";"kurovskoje";"RUS40";"Russie";55.58333333;38.91666667;"O";0;0;1952;;;0;0;0;0;4615;3308.56991;16.4;17.5;19.3;21.1;19.507;21.821
"AR66241501";"safonovo";"RUS61";"Russie";55.1;33.25;"O";0;0;1952;;;108000000000;122;"Podmoscovny basin";1;5159;207.3785818;31.7;45.9;53;56.6;48.209;46.116
"AR52410";"kalachinsk";"RUS45";"Russie";55.05;74.58333333;"E";0;0;1952;;;816000000000;107;"Ob`-Irtyshskaya coal-bearing territory";1;4974;471.275639;19;20.8;22.4;25;24.247;23.539
"AR69402";"asino";"RUS71";"Russie";57;86.15;"E";0;0;1952;;;816000000000;107;"Ob`-Irtyshskaya coal-bearing territory";1;3373;725.2270945;24.7;29.4;31.6;33.5;28.068;25.614
"AR41428";"kirovskl";"RUS35";"Russie";59.86666667;30.98333333;"O";0;0;1953;;;0;0;0;0;1551;1658.907512;11.1;12;17;23.7;24.361;25.633
"AR92405";"Almetevsk";"RUS65";"Russie";54.9;52.3;"O";0;1;1953;;;0;0;0;0;5106;372.7176352;50.9;87.1;109.6;129;140.437;146.309
"AR53414";"kuvandyk";"RUS47";"Russie";51.48333333;57.35;"E";0;0;1953;;;0;0;0;0;9425;2209.825544;21.4;22.9;25.1;28.3;28.679;26.176
"AR81248501";"gusinozersk";"RUS10";"Russie";51.28333333;106.5166667;"E";0;0;1953;;;0;0;0;0;9730;1042.60108;11.6;13.8;22.3;29.8;26.502;24.603
"AR80423";"kumertau";"RUS07";"Russie";52.76666667;55.78333333;"E";0;0;1953;;;26504000000;193;"Yuzhno-Uralsky basin";1;7465;587.4763416;35.923;49;56.644;67.701;68.503;62.854
"AR41440";"pikaljovo";"RUS35";"Russie";59.51666667;34.16666667;"O";0;0;1954;;;0;0;0;0;1839;1151.416467;16.9;21.8;23.5;24.5;23.325;21.567
"AR46256501";"chehov";"RUS40";"Russie";55.15;37.48333333;"O";0;0;1954;;;0;0;0;0;4917;1007.382713;14;37.6;52.5;59.2;72.917;60.677
"AR14410";"aleksejevka";"RUS08";"Russie";50.63333333;38.68333333;"O";0;0;1954;;;0;0;0;0;11823;3113.576819;20.1;25.6;31.6;36.6;39.312;39.026
"AR19252501";"harovsk";"RUS77";"Russie";59.95;40.2;"O";0;0;1954;;;0;0;0;0;1574;1410.626407;11.3;14.1;12.9;13.1;11.46;10.078
"AR68204501";"zherdevka";"RUS64";"Russie";51.83333333;41.46666667;"O";0;0;1954;;;0;0;0;0;9478;2212.621358;15.3;17.5;18.5;19.2;16.557;15.211
"AR20239501";"povorino";"RUS78";"Russie";51.2;42.25;"O";0;0;1954;;;0;0;0;0;9915;39.6036448;19.3;20.6;19.6;19.45;18.342;17.692
"AR56253501";"nikolskp";"RUS51";"Russie";53.71666667;46.08333333;"O";0;0;1954;;;0;0;0;0;6328;513.2167481;16.8;20.7;23.6;26.9;24.061;22.475
"AR73204501";"barysh";"RUS50";"Russie";53.65;47.11666667;"O";0;0;1954;;;0;0;0;0;6989;153.510612;17.9;20.8;20.3;20.2;18.902;17.149
"AR65484503";"degtjarsk";"RUS63";"Russie";56.7;60.1;"E";0;1;1954;;;0;0;0;0;3638;307.3307927;27.4;22;20.1;18.4;15.869;15.521
"AR50217501";"karasuk";"RUS44";"Russie";53.73333333;78.03333333;"E";0;0;1954;;;0;0;0;0;6272;86.51002182;20;22.6;25.5;29.4;28.734;28.586
"AR25440";"Oust-Kout";"RUS17";"Russie";56.8;105.8333333;"E";0;1;1954;;;0;0;0;0;4542;598.4801676;21.3;33.2;49.6;61.2;49.951;45.061
"AR10221501";"zavitinsk";"RUS04";"Russie";50.11666667;129.4333333;"E";0;0;1954;;;0;0;0;0;11957;599.4030972;16;19;17.5;21.8;14.248;11.481
"AR87415";"Inta";"RUS29";"Russie";66.03333333;60.13333333;"O";0;0;1954;;;98356408;119;"Pechorsky basin";1;110;1459.269778;45.1;50.2;50.9;60.2;41.217;32.021
"AR80439";"salavat";"RUS07";"Russie";53.36666667;55.93333333;"E";0;0;1954;"3B2";;26504000000;193;"Yuzhno-Uralsky basin";1;7252;2411.341043;107.3;168.1;194.2;219.5;228.795;222.327
"AR70240501";"suvorov";"RUS72";"Russie";54.11666667;36.5;"O";0;0;1954;;;108000000000;122;"Podmoscovny basin";1;5768;301.4749771;14.1;16.9;19.3;21.9;21.213;18.975
"AR27425";"svetlyj";"RUS20";"Russie";54.68333333;20.13333333;"O";0;1;1955;;;0;0;0;0;5252;3200.630408;;14.8;17;19.9;21.745;21.38
"AR14430";"gubkin";"RUS08";"Russie";51.28333333;37.55;"O";0;0;1955;;;0;0;0;0;9737;477.5402945;21.3;54.1;65.1;73.8;86.083;88.562
"AR83248501";"tyrnyauz";"RUS19";"Russie";43.4;42.91666667;"O";0;0;1955;;;0;0;0;0;18455;54128.00032;12.8;18.3;21.1;30.8;21.092;21
"AR22255501";"chkalovsk";"RUS42";"Russie";56.76666667;43.25;"O";0;0;1955;;;0;0;0;0;3960;13873.60825;11.6;13.8;14.6;15.1;13.856;12.371
"AR22242503";"vorsma";"RUS42";"Russie";55.98333333;43.26666667;"O";0;0;1955;;;0;0;0;0;4257;7756.790372;10.9;13;14;13.6;12.629;11.622
"AR18251507";"krasnoslobd";"RUS76";"Russie";48.7;44.56666667;"O";0;0;1955;;;0;0;0;0;13790;4405.3159;19;17.7;16;13.5;14.359;16.007
"AR33407";"kirovchepec";"RUS28";"Russie";58.55;50.03333333;"O";0;0;1955;;;0;0;0;0;2486;1346.234513;34.119;54.915;74.759;95.268;90.303;80.92
"AR80443";"sibaj";"RUS07";"Russie";52.7;58.65;"E";0;0;1955;;;0;0;0;0;7526;672.8110081;28.8;37.7;40.3;47.3;59.082;62.732
"AR25414";"Bratsk";"RUS17";"Russie";56.11666667;101.6;"E";0;0;1955;"3A1";;0;0;0;0;4158;1515.109302;51.5;185.261;244.048;284.617;259.335;246.348
"AR32425";"mezhdurechk";"RUS25";"Russie";53.68333333;88.05;"E";0;0;1955;"3C";;38041000000;78;"Kuznetsky basin";1;6368;1769.139545;86.7;117.9;131.8;153;146.422;145.024
"AR92425";"leninogorsk";"RUS65";"Russie";54.6;52.46666667;"O";0;1;1955;;;76767000000;63;"Kamskaya  coal-bearing territory";1;5442;3854.954253;38.6;46.6;53.6;62.1;65.592;64.145
"AR60415";"gukovo";"RUS55";"Russie";48.05;39.93333333;"O";0;0;1955;"3C";;82076000000;38;"Donetzky basin";1;14822;807.0866335;53;65.1;68.1;67.3;66.648;67.268
"AR18224501";"kotelnikovo";"RUS76";"Russie";47.63333333;43.13333333;"O";0;1;1955;;;82076000000;38;"Donetzky basin";1;15402;46.95573626;17.6;19.1;20.2;20.3;19.656;20.441
"AR41442";"podporozhje";"RUS35";"Russie";60.91666667;34.16666667;"O";0;0;1956;;;0;0;0;0;1018;768.3123436;17.6;21.5;23.9;23.3;20.312;18.729
"AR46418";"dubna";"RUS40";"Russie";56.75;37.15;"O";0;0;1956;;;0;0;0;0;3776;1915.489797;32.617;43.7;54.9;65.8;60.951;70.569
"AR46239505";"elektrougli";"RUS40";"Russie";55.71666667;38.21666667;"O";0;0;1956;;;0;0;0;0;4487;734.1804407;14;17.2;19.4;20.567;18.505;20.12
"AR18238501";"novoanniski";"RUS76";"Russie";50.51666667;42.66666667;"O";0;1;1956;;;0;0;0;0;12529;585.4425159;18.7;20.5;20.9;20.9;19.472;17.911
"AR36424";"otradnyj";"RUS59";"Russie";53.36666667;51.35;"O";0;1;1956;;;0;0;0;0;6856;850.8295751;27.9;44.4;45.2;48.8;50.048;48.359
"AR37216501";"kurtamysh";"RUS31";"Russie";54.9;64.43333333;"E";0;1;1956;;;0;0;0;0;4751;50095.53335;12.3;16.3;17.2;19.2;18.154;17.098
"AR65445503";"volchansk";"RUS63";"Russie";59.93333333;60.05;"E";0;0;1956;;;1564200000;73;"Kizelovsky basin";1;1488;333.8914211;25;18.3;14.8;14.8;11.043;10.008
"AR60412";"volgodonsk";"RUS55";"Russie";47.51666667;42.15;"O";0;0;1956;;;82076000000;38;"Donetzky basin";1;15625;383.427916;25.6;41.1;106.7;190.9;181.438;185.65
"AR29415";"obninsk";"RUS22";"Russie";55.1;36.61666667;"O";0;0;1956;;;108000000000;122;"Podmoscovny basin";1;4942;59.94429337;18.5;55.079;82.229;110.592;118.012;116.948
"AR46462";"puschino";"RUS40";"Russie";54.83333333;37.61666667;"O";0;0;1956;;;108000000000;122;"Podmoscovny basin";1;5529;14561.16968;;10.1;16.5;19.5;19.964;20.263
"AR52413";"nazyvajevsk";"RUS45";"Russie";55.56666667;71.35;"E";0;0;1956;;;816000000000;107;"Ob`-Irtyshskaya coal-bearing territory";1;4865;1480.565237;16.5;15.8;14.2;14.4;13.012;11.614
"AR69541";"seversk";"RUS71";"Russie";56.6;84.85;"E";0;0;1956;;;816000000000;107;"Ob`-Irtyshskaya coal-bearing territory";1;3689;2938.880432;;;;103;109.106;108.466
"AR47417";"olenegorsk";"RUS41";"Russie";68.13333333;33.26666667;"O";0;0;1957;;;0;0;0;0;32;625.9318399;12.1;21.5;27.4;35.6;25.166;23.079
"AR46230501";"luhovicy";"RUS40";"Russie";54.98333333;39.03333333;"O";0;0;1957;;;0;0;0;0;5023;203.5945156;12.7;18.1;27.7;32.5;32.403;29.849
"AR34414";"manturovo";"RUS30";"Russie";58.33333333;44.76666667;"O";0;0;1958;;;0;0;0;0;2583;34.30607224;16.3;21.5;22.6;22.5;19.457;17.479
"AR18212501";"zhirnovsk";"RUS76";"Russie";50.98333333;44.76666667;"O";0;1;1958;;;0;0;0;0;10738;15374.123;;14.7;15.7;16.8;17.751;16.89
"AR80425";"meleuz";"RUS07";"Russie";52.95;55.93333333;"E";0;0;1958;;;26504000000;193;"Yuzhno-Uralsky basin";1;7465;390.4827145;17.8;24.9;38.4;53.4;62.949;61.408
"AR60206501";"belkalitva";"RUS55";"Russie";48.16666667;40.78333333;"O";0;0;1958;;;82076000000;38;"Donetzky basin";1;14616;1559.643282;23.5;30.9;38;47.8;47.347;43.688
"AR70250501";"jasnogorsk";"RUS72";"Russie";54.48333333;37.7;"O";0;0;1958;;;108000000000;122;"Podmoscovny basin";1;5529;2249.51024;12.5;18.5;21;21.3;18.588;16.804
"AR46220504";"ozherelje";"RUS40";"Russie";54.8;38.26666667;"O";0;0;1958;;;108000000000;122;"Podmoscovny basin";1;5169;1012.381554;11.9;12.9;14.45;16.2;11.113;10.444
"AR12402";"ahtubinsk";"RUS06";"Russie";48.28333333;46.16666667;"O";0;1;1959;;;0;0;0;0;14395;2111.969866;22.3;43.5;47.4;50.3;45.542;41.898
"AR87244505";"mikunj";"RUS29";"Russie";62.35;50.06666667;"O";0;0;1959;;;0;0;0;0;537;712.504562;11.3;10.4;11.3;12.5;11.68;10.732
"AR98404";"mirnyj";"RUS15";"Russie";62.53333333;113.95;"E";0;0;1959;;;0;0;0;0;4408;657654.4822;;23.8;30.5;38.8;39.981;37.179
"AR89410";"kovylkino";"RUS39";"Russie";54.03333333;43.91666667;"O";0;0;1960;;;0;0;0;0;5893;591.0417789;10.5;17.3;20;21.6;21.873;21.307
"AR80450";"tujmazy";"RUS07";"Russie";54.6;53.7;"E";0;1;1960;;;0;0;0;0;5309;809.8763488;23.4;37;43.7;57.9;66.687;66.849
"AR71403";"zavodukovsk";"RUS70";"Russie";56.5;66.55;"E";0;0;1960;;;0;0;0;0;3815;1886.606955;;17.5;21.5;25.8;25.674;25.657
"AR11525";"mirnyja";"RUS05";"Russie";62.76666667;40.33333333;"O";0;0;1961;;;0;0;0;0;418;1211.401953;13.316;13.33;13.267;14.027;41.802;41.289
"AR92437";"nurlat";"RUS65";"Russie";54.43333333;50.8;"O";0;1;1961;;;0;0;0;0;5624;1777.131279;12.7;17.5;18.6;23.5;32.527;32.6
"AR75464";"juzhuraljsk";"RUS66";"Russie";54.45;61.25;"E";0;1;1961;;;7458700000;180;"Chelyabinsky basin";1;5430;877.7924117;22.4;35.3;39.2;41.3;39.275;37.89
"AR15222501";"zhukovka";"RUS11";"Russie";53.53333333;33.73333333;"O";0;0;1962;;;0;0;0;0;6506;58.11868306;11.1;16.2;17.6;19.7;19.731;18.269
"AR38405";"zhelezgorsk";"RUS32";"Russie";52.33333333;35.36666667;"O";0;0;1962;;;0;0;0;0;8145;705.143455;;31;65.3;85.2;95.528;95.057
"AR63221501";"kalininsk";"RUS60";"Russie";51.5;44.45;"O";0;1;1962;;;0;0;0;0;9373;2069.803195;13.2;16.3;18.6;19.3;18.855;16.442
"AR57435";"chajkovskij";"RUS52";"Russie";56.76666667;54.11666667;"E";0;1;1962;;;0;0;0;0;3723;80.00571168;12.8;48;70.3;85.8;86.714;82.933
"AR33210504";"sosnovka";"RUS28";"Russie";56.25;51.28333333;"O";0;0;1962;;;76767000000;63;"Kamskaya  coal-bearing territory";1;4071;414.1976845;14.1;16.7;15.7;15.2;12.84;11.96
"AR41413";"vsevolozhsk";"RUS35";"Russie";60.01666667;30.68333333;"O";0;0;1963;;;0;0;0;0;1447;156.2518737;27.8;27;28.6;31.9;45.31;59.689
"AR47215503";"zapoljarnyj";"RUS41";"Russie";69.41666667;30.8;"O";0;0;1963;;;0;0;0;0;5;482.1657195;;22.1;21.2;23.6;18.64;15.835
"AR41466";"tosno";"RUS35";"Russie";59.55;30.9;"O";0;0;1963;;;0;0;0;0;1796;183.0086058;15.1;19.6;24.1;32.5;38.683;39.127
"AR20258501";"ertilj";"RUS78";"Russie";51.83333333;40.8;"O";0;0;1963;;;0;0;0;0;8780;1358.986401;10.1;12.6;13.2;14.1;12.885;11.387
"AR63203501";"arkadak";"RUS60";"Russie";51.93333333;43.5;"O";0;0;1963;;;0;0;0;0;8736;1530.970053;14.8;14.7;14.1;14.2;14.438;12.846
"AR18230501";"leninsk";"RUS76";"Russie";48.7;45.2;"O";0;0;1963;;;0;0;0;0;13955;2028.347678;11.4;12.1;12.3;13.1;14.866;15.527
"AR82425";"kiziljurt";"RUS13";"Russie";43.2;46.86666667;"O";0;1;1963;;;0;0;0;0;18720;801.5683101;;13.1;21.7;33.7;30.264;36.187
"AR85215501";"laganj";"RUS21";"Russie";45.38333333;47.36666667;"O";0;1;1963;;;0;0;0;0;18239;43445.64411;10.8;13.9;14.5;15.8;14.345;14.323
"AR63217501";"ershov";"RUS60";"Russie";51.35;48.28333333;"O";0;1;1963;;;0;0;0;0;9805;1644.633513;20;21.7;22.3;24.5;23.848;21.447
"AR80455";"uchaly";"RUS07";"Russie";54.31666667;59.38333333;"E";0;1;1963;;;0;0;0;0;5522;461.7996307;22.597;21.8;27.6;32.4;37.196;37.771
"AR32443";"tashtagol";"RUS25";"Russie";52.76666667;87.86666667;"E";0;0;1963;;;0;0;0;0;7475;917.7142917;17.1;25.1;24.4;26.3;23.363;23.114
"AR98227501";"lensk";"RUS15";"Russie";60.71666667;114.9;"E";0;1;1963;;;0;0;0;0;4408;461552.4351;;16.8;24;30.3;24.558;24.955
"AR80427";"Neftekamsk";"RUS07";"Russie";56.08333333;54.25;"E";0;1;1963;;;76767000000;63;"Kamskaya  coal-bearing territory";1;4160;1299.318981;;51.461;73.813;111.356;127.124;121.757
"AR22228503";"zavolzhje";"RUS42";"Russie";56.63333333;43.4;"O";0;0;1964;;;0;0;0;0;3960;1011.282889;47;69.1;77.2;78.8;76.413;70.964
"AR90215501";"digora";"RUS48";"Russie";43.15;44.15;"O";0;1;1964;;;0;0;0;0;18652;1799.130588;;10.6;10.6;10.9;11.819;10.856
"AR90210501";"ardon";"RUS48";"Russie";43.16666667;44.28333333;"O";0;1;1964;;;0;0;0;0;18648;3054.646729;;11.8;12.9;13.5;17.521;18.774
"AR93403";"akdovurak";"RUS73";"Russie";51.16666667;90.6;"E";0;0;1964;;;0;0;0;0;7607;158960.627;;;13.2;15.2;12.965;13.469
"AR47203501";"kovdor";"RUS41";"Russie";67.56666667;30.46666667;"O";0;0;1965;;;0;0;0;0;72;1293.78014;;12.4;23.2;30.5;20.867;18.836
"AR41425";"kirishi";"RUS35";"Russie";59.45;32.01666667;"O";0;0;1965;;;0;0;0;0;1874;537.6289934;;27.3;44.2;53;55.634;52.826
"AR49228501";"okulovka";"RUS43";"Russie";58.38333333;33.3;"O";0;0;1965;;;0;0;0;0;2621;835.3442086;;19.2;19.3;17.2;14.47;12.464
"AR49232501";"pestovo";"RUS43";"Russie";58.6;35.81666667;"O";0;0;1965;;;0;0;0;0;2426;732.8927398;14.2;15.8;15.5;15.9;15.99;15.911
"AR17246501";"petushki";"RUS75";"Russie";55.93333333;39.46666667;"O";0;0;1965;;;0;0;0;0;4387;3670.732488;11.5;12.9;17.6;20.1;16.482;15.167
"AR83220501";"majskij";"RUS19";"Russie";43.63333333;44.06666667;"O";0;1;1965;;;0;0;0;0;18390;870.2086748;12.4;18.6;21.8;24.5;27.037;26.755
"AR33205501";"belholunica";"RUS28";"Russie";58.83333333;50.85;"O";0;0;1965;;;0;0;0;0;2438;21235.30521;10.4;12.3;13;13.4;11.975;11.232
"AR33207501";"kirs";"RUS28";"Russie";59.33333333;52.23333333;"O";0;0;1965;;;0;0;0;0;2139;583.9639889;10.9;14.2;14.4;14.2;11.786;10.42
"AR71138";"Ourai";"RUS70";"Russie";60.13333333;64.78333333;"E";0;1;1965;;;0;0;0;0;1801;69638.3081;;17.4;21.5;37.2;38.872;39.435
"AR71136";"Sourgout";"RUS70";"Russie";61.25;73.43333333;"E";0;1;1965;;;0;0;0;0;2597;5581.495539;;34;107.3;247.8;285.027;306.703
"AR25226501";"zhelezgrilm";"RUS17";"Russie";56.58333333;104.1166667;"E";0;1;1965;;;0;0;0;0;4144;2643.377173;;22.2;29.1;32.3;29.093;26.134
"AR57214501";"gornozavdsk";"RUS52";"Russie";58.38333333;58.31666667;"E";0;1;1965;;;1564200000;73;"Kizelovsky basin";1;2511;1136.073068;10.1;10.4;10.7;14.9;13.061;12.056
"AR77401";"Anadyr";"RUS68";"Russie";64.73333333;177.5166667;"E";1;0;1965;;;14429000000;4;"Anadyrskaya coal-bearing territory";1;370;195089.0834;;;12.2;17.1;11.038;13.053
"AR32410";"berjozvskij";"RUS25";"Russie";55.66666667;86.25;"E";0;0;1965;;;38041000000;78;"Kuznetsky basin";1;4640;732.5194058;21.9;34.8;41.4;51.3;48.299;47.292
"AR61212501";"korablino";"RUS56";"Russie";53.91666667;40.01666667;"O";0;0;1965;;;108000000000;122;"Podmoscovny basin";1;6277;261.9943548;;13.1;14.8;15.3;14.69;12.657
"AR50219501";"kargat";"RUS44";"Russie";55.2;80.28333333;"E";0;0;1965;;;816000000000;107;"Ob`-Irtyshskaya coal-bearing territory";1;4904;1957.309123;12.8;12.9;12.6;12.6;11.184;10.042
"AR47405";"Apatity";"RUS41";"Russie";67.56666667;33.4;"O";0;0;1966;;;0;0;0;0;71;409.5900634;53;84.1;102.5;131.5;95.998;88.329
"AR68430";"uvarovo";"RUS64";"Russie";51.98333333;42.26666667;"O";0;0;1966;;;0;0;0;0;8619;2303.699033;18.513;24.9;31.7;34.6;29.69;26.829
"AR18253501";"surovikino";"RUS76";"Russie";48.6;42.85;"O";0;1;1966;;;0;0;0;0;14266;706.6880474;;15.2;17;18.3;20.338;20.527
"AR18226501";"kotovo";"RUS76";"Russie";50.31666667;44.8;"O";0;1;1966;;;0;0;0;0;11486;8147.289169;;20.6;23.1;25.4;26.763;24.104
"AR63223501";"kranyjkut";"RUS60";"Russie";50.95;46.96666667;"O";0;1;1966;;;0;0;0;0;12806;521.0702436;14.8;17.1;16.8;17.5;15.334;14.42
"AR57257501";"chernushka";"RUS52";"Russie";56.5;56.08333333;"E";0;1;1966;;;0;0;0;0;4057;1458.988275;12.1;21.1;28.1;34.8;35.713;33.275
"AR65453503";"verhtagil";"RUS63";"Russie";57.38333333;59.93333333;"E";0;1;1966;;;0;0;0;0;3143;3179.449257;15.4;14.9;13.6;13.1;12.571;11.839
"AR95402";"abaza";"RUS27";"Russie";52.65;90.08333333;"E";0;0;1966;;;0;0;0;0;7607;1575.506815;11.6;15.2;15.8;17.6;18.052;17.111
"AR95409";"sorsk";"RUS27";"Russie";54;90.25;"E";0;0;1966;;;0;0;0;0;5912;180.9756351;11.1;10.6;12.2;15.1;13.313;12.14
"AR25204503";"vihorevka";"RUS17";"Russie";56.11666667;101.1666667;"E";0;0;1966;;;0;0;0;0;4190;315.7796222;10.9;17.9;20.5;23.9;24.763;22.528
"AR25234508";"bajkalsk";"RUS17";"Russie";51.55;104.05;"E";0;0;1966;;;0;0;0;0;9473;2530.900821;;13.3;15.5;16.4;15.727;13.589
"AR92435";"nizhnekamsk";"RUS65";"Russie";55.63333333;51.81666667;"O";0;1;1966;;;76767000000;63;"Kamskaya  coal-bearing territory";1;4572;1029.853984;;49;134.2;190.8;225.399;234.108
"AR83403";"baksan";"RUS19";"Russie";43.68333333;43.53333333;"O";0;1;1967;;;0;0;0;0;18455;19405.87996;;18.4;21.8;28.8;35.805;36.857
"AR83235501";"terek";"RUS19";"Russie";43.48333333;44.13333333;"O";0;1;1967;;;0;0;0;0;18592;1215.942386;;10.4;12.3;16.6;20.255;19.17
"AR26406";"nazranj";"RUS16";"Russie";43.21666667;44.76666667;"O";1;1;1967;;;0;0;0;0;18637;64.72247983;;12.9;14.9;18.2;125.066;93.357
"AR96402";"argun";"RUS67";"Russie";43.3;45.86666667;"O";0;1;1967;;;0;0;0;0;18566;619.6137365;;15.1;21.7;25.5;25.698;29.528
"AR18245501";"pallasovka";"RUS76";"Russie";50.05;46.88333333;"O";0;0;1967;;;0;0;0;0;12806;16.18336562;10.3;13.5;15.5;17.7;17.163;15.984
"AR97219501";"kozlovka";"RUS69";"Russie";55.83333333;48.25;"O";0;0;1967;;;0;0;0;0;4419;2340.396919;;11.7;11.9;12.7;13.054;10.355
"AR71134";"Nefte-Ougansk";"RUS70";"Russie";61.1;72.6;"E";0;1;1967;;;0;0;0;0;2597;30752.77131;;19.7;52.4;93.9;107.83;123.276
"AR92239501";"mendeleevsk";"RUS65";"Russie";55.9;52.31666667;"O";0;1;1967;;;76767000000;63;"Kamskaya  coal-bearing territory";1;4548;1348.088792;11.2;13.6;14;18.1;22.027;22.075
"AR60225501";"knstantinsk";"RUS55";"Russie";47.58333333;41.1;"O";0;0;1967;;;82076000000;38;"Donetzky basin";1;15415;17384.40568;10.7;13.4;16.1;18.4;18.801;17.926
"AR65448";"kachkanar";"RUS63";"Russie";58.7;59.48333333;"E";0;1;1968;;;0;0;0;0;2474;588.2691461;;33;41.3;48.3;44.664;41.429
"AR98218501";"vilujsk";"RUS15";"Russie";63.75;121.6166667;"E";0;1;1968;;;237200000;85;"Lensky basin";1;4408;675886.2575;;;;;;10.233
"AR17440510";"lakinsk";"RUS75";"Russie";56.01666667;39.95;"O";0;0;1969;;;0;0;0;0;4305;600.0185772;;15.1;17.5;18.9;17.086;15.707
"AR76410";"krasnokamen";"RUS80";"Russie";50.1;118.0333333;"E";0;0;1969;;;0;0;0;0;11765;17943.69879;;13.8;51;66.9;55.92;55.668
"AR41225504";"Otradnoe";"RUS35";"Russie";59.78;30.82;"O";0;0;1970;;;0;0;0;0;1619;253.2854005;13.5;18.6;20;22.4;21.57;23.874
"AR60245501";"proletarsk";"RUS55";"Russie";46.7;41.71666667;"O";0;0;1970;;;0;0;0;0;16429;945.0322916;10.7;16.3;19.2;19.4;19.572;20.267
"AR29206505";"balabanovo";"RUS22";"Russie";55.18333333;36.65;"O";0;0;1972;;;0;0;0;0;4942;630.6921009;;10.9;15.4;19.1;23.312;26.337
"AR71174";"Nadym";"RUS70";"Russie";65.53333333;72.51666667;"E";0;1;1972;;;0;0;0;0;195;12313.48473;;;26.1;52.6;45.943;46.55
"AR60251501";"semikarakor";"RUS55";"Russie";47.51666667;40.8;"O";0;0;1972;;;82076000000;38;"Donetzky basin";1;15415;12141.06565;10.7;15.9;20.2;22.7;23.473;23.884
"AR71135";"Nijni-Vartovsk";"RUS70";"Russie";60.95;76.55;"E";0;1;1972;;;816000000000;107;"Ob`-Irtyshskaya coal-bearing territory";1;999;2351.81244;;15.7;108.7;241.5;239.044;251.86
"AR41454";"sosnovyjbor";"RUS35";"Russie";59.88333333;29.1;"O";0;0;1973;;;0;0;0;0;1760;91.91321398;;14;42.2;55.8;66.132;65.901
"AR22254501";"urenj";"RUS42";"Russie";57.46666667;45.78333333;"O";0;0;1973;;;0;0;0;0;3136;1156.991484;10.8;10.6;13.1;13.6;12.558;12.306
"AR12225501";"kamyzjak";"RUS06";"Russie";46.11666667;48.08333333;"O";0;1;1973;;;0;0;0;0;16546;21746.13708;;;14.1;15.1;16.052;16.291
"AR25438";"Oust-Ilimsk";"RUS17";"Russie";58;102.6666667;"E";0;0;1973;;;477370000;156;"Tungussky basin";1;3614;3470.430343;;21.3;68.6;109.3;100.592;86.591
"AR12245501";"harabali";"RUS06";"Russie";47.4;47.25;"O";0;1;1974;;;0;0;0;0;15714;2190.996594;;14.3;17;18.6;18.296;18.209
"AR88212501";"zvenigovo";"RUS38";"Russie";55.96666667;48.01666667;"O";0;0;1974;;;0;0;0;0;4419;21776.47228;;;12;14.2;12.722;11.945
"AR46489";"scherbinka";"RUS40";"Russie";55.5;37.56666667;"O";0;0;1975;;;0;0;0;0;4760;1835.016949;18.1;23.4;23.6;28;28.043;32.836
"AR91235501";"ustjdgeguta";"RUS24";"Russie";44.08333333;41.96666667;"O";0;1;1975;;;0;0;0;0;18126;1514.030085;11.5;16.7;19.2;29.2;32.903;30.602
"AR95408";"sajanogorsk";"RUS27";"Russie";53.1;91.4;"E";0;0;1975;;;0;0;0;0;7406;159.1552373;;13.7;21.9;50.2;50.255;49.889
"AR10432";"Tynda";"RUS04";"Russie";55.15;124.7166667;"E";0;0;1975;;;0;0;0;0;4894;1527.21779;;;41.7;62;40.094;35.574
"AR30207501";"elizovo";"RUS23";"Russie";53.18333333;158.3833333;"E";0;0;1975;;;0;0;0;0;429;1115294.179;;14.5;36.2;46.9;41.533;39.548
"AR71173";"labytnangi";"RUS70";"Russie";66.65;66.4;"E";0;0;1975;;;45732000000;138;"Severo-Sos`vinsky basin";1;96;304.3145634;;;17.7;31.5;27.304;26.948
"AR98406";"Nerioungri";"RUS15";"Russie";56.66666667;124.7;"E";0;0;1975;;;62587000000;194;"Yuzhno-Yakutsky basin";1;4799;2242.655097;;;22.6;72.5;66.269;61.746
"AR79403";"adygejsk";"RUS01";"Russie";44.88333333;39.18333333;"O";0;1;1976;;;0;0;0;0;17729;14827.94146;;;;12.5;12.209;12.248
"AR92417";"zainsk";"RUS65";"Russie";55.3;52.01666667;"O";0;1;1978;;;76767000000;63;"Kamskaya  coal-bearing territory";1;5123;1341.100615;17.616;10.184;30.3;36.6;41.088;41.798
"AR69410";"strezhevoj";"RUS71";"Russie";60.73333333;77.58333333;"E";0;1;1978;;;816000000000;107;"Ob`-Irtyshskaya coal-bearing territory";1;999;57804.76493;;;23.1;43.3;43.815;42.216
"AR53432";"jasnyj";"RUS47";"Russie";51.03333333;59.86666667;"E";0;0;1979;;;0;0;0;0;10337;3069.034549;;15.9;22.9;26.6;18.545;17.365
"AR53413";"gaj";"RUS47";"Russie";51.46666667;58.45;"E";0;0;1979;;;7458700000;180;"Chelyabinsky basin";1;9746;186.1019126;;28.3;35.7;41.7;41.621;38.302
"AR71176";"Novy Ourengoi";"RUS70";"Russie";66.08333333;76.68333333;"E";0;1;1980;;;0;0;0;0;195;329.6761673;;;;93.2;94.456;104.144
"AR81420";"sevbajkalsk";"RUS10";"Russie";55.63333333;109.3166667;"E";0;0;1980;;;0;0;0;0;4542;530.4377558;;;12.9;28.3;25.434;24.935
"AR71133";"megion";"RUS70";"Russie";61.03333333;76.1;"E";0;1;1980;;;816000000000;107;"Ob`-Irtyshskaya coal-bearing territory";1;999;6500.222881;;;23.6;39.8;46.566;49.471
"AR47527";"snezhngorsk";"RUS41";"Russie";69.2;33.25;"O";0;;1980;;;;;;;;;;;;;12.737;12.698
"AR28455";"udomlja";"RUS74";"Russie";57.88333333;35.01666667;"O";0;0;1981;;;0;0;0;0;2863;269.5514105;;;12.1;30.8;31.961;31.048
"AR46411";"dzerdginski";"RUS40";"Russie";55.63333333;37.85;"O";0;0;1981;;;0;0;0;0;4565;1016.575214;15.4;23.9;30.8;36.1;41.488;47.125
"AR61225514";"novomichur";"RUS56";"Russie";54.03333333;39.75;"O";0;0;1981;;;108000000000;122;"Podmoscovny basin";1;5861;1825.319334;;;15.8;19.6;20.743;19.309
"AR47529";"gadgijevo";"RUS41";"Russie";69.25;33.31666667;"O";0;;1981;;;;;;;;;;;;;12.18;11.089
"AR71178";"Noiabrsk";"RUS70";"Russie";63.2;75.45;"E";0;1;1982;;;0;0;0;0;724;787.8362719;;;;85.9;96.44;110.572
"AR86406";"kostomuksha";"RUS12";"Russie";64.58333333;30.6;"O";0;0;1983;;;0;0;0;0;183;1879.555146;;;;30.4;29.746;28.433
"AR38408";"kurchatov";"RUS32";"Russie";51.66666667;35.65;"O";0;0;1983;;;0;0;0;0;9151;2416.494914;;;21.8;41.1;45.556;42.691
"AR12240501";"narimanov";"RUS06";"Russie";46.68333333;47.85;"O";0;1;1984;;;0;0;0;0;16494;15982.84004;;;;11.1;11.202;11.386
"AR87412";"vuktyl";"RUS29";"Russie";63.86666667;57.31666667;"O";0;1;1984;;;0;0;0;0;176;89937.05884;;;16.8;19.3;14.472;12.357
"AR87423";"Oussinsk";"RUS29";"Russie";66;57.53333333;"O";0;1;1984;;;0;0;0;0;133;68432.44508;;;19.5;47.2;45.358;41.1
"AR11408";"korjazhma";"RUS05";"Russie";61.3;47.16666667;"O";0;0;1985;;;0;0;0;0;833;967.0685259;11.2;33.2;42.8;41.8;42.811;39.629
"AR87208501";"emva";"RUS29";"Russie";62.58333333;50.85;"O";0;0;1985;;;0;0;0;0;527;466.1028004;13.7;13.5;15.9;18.8;16.739;14.574
"AR71139";"njaganj";"RUS70";"Russie";62.13333333;65.38333333;"E";0;1;1985;;;0;0;0;0;755;2978.346907;;;;54.1;52.61;54.903
"AR71183";"Kogalym";"RUS70";"Russie";62.26666667;74.48333333;"E";0;1;1985;;;0;0;0;0;724;3231.111727;;;;44.3;55.367;58.192
"AR71137";"raduzhnyj";"RUS70";"Russie";62.13333333;77.46666667;"E";0;1;1985;;;0;0;0;0;999;130763.6178;;;;43.7;47.06;43.394
"AR25426";"sajansk";"RUS17";"Russie";54.11666667;102.1666667;"E";0;0;1985;;;0;0;0;0;6479;16621.14336;;;;38.2;43.468;40.786
"AR71132";"langepas";"RUS70";"Russie";61.25;75.16666667;"E";0;1;1985;;;816000000000;107;"Ob`-Irtyshskaya coal-bearing territory";1;999;4058.650722;;;;25.6;37.182;41.675
"AR98231509";"udachnyj";"RUS15";"Russie";66.4;112.3;"E";0;0;1987;;;0;0;0;0;3614;1043956.034;;;11.6;19.6;15.698;12.611
"AR92403";"aznakajevo";"RUS65";"Russie";54.85;53.06666667;"O";0;1;1987;;;76767000000;63;"Kamskaya  coal-bearing territory";1;5394;21018.03404;11.7;21.9;26.7;32.2;35.412;34.859
"AR71181";"belojarskij";"RUS70";"Russie";63.71666667;66.66666667;"E";0;1;1988;;;0;0;0;0;755;134121.3354;;;;20.5;18.721;20.283
"AR82438";"juzhsuhokum";"RUS13";"Russie";44.66666667;45.65;"O";0;;1988;;;;;;;;;;;10.4;12.2;10.819;10.048
"AR36230501";"neftegorsk";"RUS59";"Russie";52.8;51.16666667;"O";0;1;1989;;;0;0;0;0;7273;28881.18141;;11.8;15.2;18.9;19.388;19.256
"AR80418";"djurtjuli";"RUS07";"Russie";55.48333333;54.86666667;"E";0;1;1989;;;76767000000;63;"Kamskaya  coal-bearing territory";1;4160;76839.81517;;14.3;19.6;25.3;29.984;31.272
"AR60418";"zverevo";"RUS55";"Russie";48.01666667;40.11666667;"O";0;0;1989;;;82076000000;38;"Donetzky basin";1;14904;518.865819;10.9;16.6;21.7;28.2;25.356;22.416
"AR46467";"protvino";"RUS40";"Russie";54.86666667;37.21666667;"O";0;0;1989;;;108000000000;122;"Podmoscovny basin";1;5115;216.98918;;13;25;34.5;36.175;37.308
"AR41248508";"nikoljskoje";"RUS35";"Russie";59.7;30.78333333;"O";0;0;1990;;;0;0;0;0;1680;19.2830418;;;13.2;17.2;26.55;31.079
"AR15425";"seljco";"RUS11";"Russie";53.36666667;34.1;"O";0;0;1990;;;0;0;0;0;6827;1862.579104;12.1;17.6;20.2;20.8;19.14;17.933
"AR96234501";"urusmartan";"RUS67";"Russie";43.13333333;45.55;"O";0;1;1990;;;0;0;0;0;18600;12033.51797;11.7;24.3;27.9;32.9;39.982;49.071
"AR96237501";"shali";"RUS67";"Russie";43.15;45.9;"O";0;1;1990;;;0;0;0;0;18717;2717.066639;11.9;18.6;21.9;25;40.356;47.715
"AR71185";"pytjah";"RUS70";"Russie";60.75;72.78333333;"E";0;1;1990;;;0;0;0;0;2597;2215.435121;;;17.101;44.862;41.813;41.453
"AR71175";"muravlenko";"RUS70";"Russie";63.78333333;74.51666667;"E";0;1;1990;;;0;0;0;0;724;65932.95314;;;;23.1;35.926;33.401
"AR66410";"desnogorsk";"RUS61";"Russie";54.15;33.28333333;"O";0;0;1990;;;108000000000;122;"Podmoscovny basin";1;5571;15590.00826;;;;32.3;32.07;29.677
"AR47419";"poljarnzori";"RUS41";"Russie";67.36666667;32.5;"O";0;0;1991;;;0;0;0;0;71;240.6170696;;;11.4;19.4;15.91;15.106
"AR80403";"agidel";"RUS07";"Russie";55.9;53.93333333;"E";0;1;1991;;;76767000000;63;"Kamskaya  coal-bearing territory";1;4160;29057.93858;18.721;18.721;18.721;18.721;18.721;16.365
"AR80460";"janaul";"RUS07";"Russie";56.26666667;54.93333333;"E";0;1;1991;;;76767000000;63;"Kamskaya  coal-bearing territory";1;4057;722.8202484;15.8;20.1;21.8;25.7;27.909;26.988
"AR29216504";"sosenskij";"RUS22";"Russie";54.05;35.96666667;"O";0;0;1991;;;108000000000;122;"Podmoscovny basin";1;5837;345.6393176;;;;13.3;12.623;12.394
"AR41209508";"sjasstroj";"RUS35";"Russie";60.13333333;32.56666667;"O";0;0;1992;;;0;0;0;0;1344;1287.049001;;12.9;17.5;16.1;13.969;13.747
"AR65426";"zarechnyjs";"RUS63";"Russie";56.81666667;61.31666667;"E";0;1;1992;;;0;0;0;0;3565;1299.04652;18.626;25.969;30.549;41.411;40.559;39.43
"AR71187";"jugorsk";"RUS70";"Russie";61.31666667;63.35;"E";0;1;1992;;;0;0;0;0;812;1693.842493;;;12.5;24.9;30.285;34.066
"AR71126605";"ljantor";"RUS70";"Russie";61.61666667;72.16666667;"E";0;1;1992;;;0;0;0;0;2597;68590.62874;;;;22.1;33.011;38.922
"AR71184";"pokachi";"RUS70";"Russie";61.75;75.58333333;"E";0;1;1992;;;0;0;0;0;999;51985.72617;;;;11.5;17.017;17.053
"AR46493";"jubilejnyj";"RUS40";"Russie";55.93333333;37.85;"O";0;;1992;;;;;;;;;;;;;30.837;33.221
"AR41218505";"kommunar";"RUS35";"Russie";59.61666667;30.4;"O";0;0;1993;;;0;0;0;0;1783;712.2309025;;;;17.8;17.164;20.265
"AR75545";"snezhinsk";"RUS66";"Russie";56.08333333;60.73333333;"E";0;;1993;;;;;;;;;;;;;50.451;48.896
"AR34406";"volgrechesk";"RUS30";"Russie";57.43333333;41.16666667;"O";0;0;1994;;;0;0;0;0;3161;882.8387263;;;13.3;16;18.164;17.108
"AR75543";"ozjorskch";"RUS66";"Russie";55.75;60.71666667;"E";0;;1994;;;;;;;;;;;;;91.76;82.268
"AR26408";"karabulak";"RUS16";"Russie";43.3;44.9;"O";0;;1995;;;;;;;;;;;;;31.279;31.081
"AR71124604";"sovetskijh";"RUS70";"Russie";61.36666667;63.56666667;"E";0;1;1996;;;0;0;0;0;775;2543.375571;;;13.7;21.1;23.23;26.434
"AR71172";"gubkinskij";"RUS70";"Russie";64.43333333;76.5;"E";0;;1996;;;;;;;;;;;;;20.407;23.34
